name,address1,address2,address3,borough_code,borough_name,os_addressbase_uprn,ward_2018_code,ward_2018_name,website,longitude,latitude,easting,northing,runtime
Harlequin,27 Arlington Way,London,Finsbury,E09000019,Islington,,E05000370,Clerkenwell,,-0.10610658511907134,51.53011014612802,531466.9643811077,182943.92322504142,01/19/2020
Peasant,240 St John Street,London,Finsbury,E09000019,Islington,,E05000370,Clerkenwell,,-0.1032631025020614,51.52602647776972,531675.9643233488,182494.92334804218,01/19/2020
Blues Kitchen,134 Curtain Road,London,Shoreditch,E09000012,Hackney,,E05009377,Hoxton East & Shoreditch,,-0.07997231300011513,51.52656454334939,533289.9638825976,182596.92331800488,01/19/2020
Caraway Lounge,290 North Street,Romford,,E09000016,Havering,,E05000306,Brooklands,,0.17274672543277814,51.585186745646936,550625.9591717031,189605.9214140277,01/19/2020
Rye,31 Peckham Rye,Peckham,London,E09000028,Southwark,,E05011113,Rye Lane,,-0.06539738721431776,51.464652411797815,534482.9635583641,175738.92517991067,01/19/2020
Eleven,5 Fernlea Road,Balham,,E09000032,Wandsworth,,E05000610,Balham,,-0.14826945321323656,51.44285263704494,528787.965107328,173165.92588280002,01/19/2020
Royal,Boston Road,Hanwell,,E09000009,Ealing,,E05000182,Northfield,,-0.32656310813794753,51.49829164143888,516256.96851430944,179032.9242864498,01/19/2020
Bitter End Bar,139 Masons Hill,Bromley,,E09000006,Bromley,,E05000109,Bromley Town,,0.02524008403156215,51.39620557790606,540988.9617902413,168297.9272050094,01/19/2020
Hope,3 Melon Road,Peckham,London,E09000028,Southwark,,E05011110,Peckham,,-0.07103817649275285,51.473594396262285,534064.9636725195,176722.92491378094,01/19/2020
Blues Kitchen,40 Acre Lane,Brixton,,E09000022,Lambeth,,E05000421,Ferndale,,-0.12041312354054397,51.460313880106504,530673.9645917199,175156.9253405594,01/19/2020
Richmal Crompton,23 Westmoreland Place,Bromley,,E09000006,Bromley,,E05000109,Bromley Town,,0.01629690684301556,51.39976786491423,540355.9619632727,168676.92709987512,01/19/2020
Partridge,194 High Street,Bromley,,E09000006,Bromley,,E05000109,Bromley Town,,0.014278857896156018,51.40520720523722,540198.9620066645,169277.92693599762,01/19/2020
Bar Sport,196-198 High Street,Bromley,,E09000006,Bromley,,E05000109,Bromley Town,,0.014278857896156018,51.40520720523722,540198.9620066645,169277.92693599762,01/19/2020
Havet,195-199 High Street,Bromley,,E09000006,Bromley,,E05000109,Bromley Town,,0.013886947222984123,51.406104225009244,540168.962014911,169376.9269091183,01/19/2020
Greyhound,205 High Street,Bromley,,E09000006,Bromley,,E05000109,Bromley Town,,0.01314047451553142,51.40645877028565,540115.962029289,169414.92689886055,01/19/2020
Star & Garter,227 High Street,Bromley,,E09000006,Bromley,,E05000109,Bromley Town,,0.01247096090046672,51.406928896364995,540067.9620423124,169465.92688507057,01/19/2020
Swan & Mitre,260-262 High Street,Bromley,,E09000006,Bromley,,E05000109,Bromley Town,,0.01199366693556537,51.40686514494168,540034.9620512243,169457.92688729567,01/19/2020
Metropolis,256A High Street,Bromley,,E09000006,Bromley,,E05000109,Bromley Town,,0.01199366693556537,51.40686514494168,540034.9620512243,169457.92688729567,01/19/2020
Barrel & Horn,204-206 High Street,Bromley,,E09000006,Bromley,,E05000109,Bromley Town,,0.013392133092803118,51.4059688377614,540134.9620240941,169360.9269135155,01/19/2020
O'Neill's,27-29 East St,Bromley,,E09000006,Bromley,,E05000109,Bromley Town,,0.015668645357416435,51.40673008533401,540290.9619818357,169449.92688927636,01/19/2020
Railway Tavern,45 East Street,Bromley,,E09000006,Bromley,,E05000109,Bromley Town,,0.016215940017572445,51.40740412928509,540326.9619720391,169525.92686872225,01/19/2020
Belgo,242 The Glades,Bromley,,E09000006,Bromley,,E05000106,Bickley,,0.03563680755826283,51.403732273542275,541688.9615985536,169154.92697259743,01/19/2020
Lord Holmesdale,184 Homesdale Road,Bromley,,E09000006,Bromley,,E05000106,Bickley,,0.03498042062974891,51.399957720379106,541654.9616079752,168733.92708675726,01/19/2020
Oak,206 Widmore Road,Bromley,,E09000006,Bromley,,E05000106,Bickley,,0.03410549519427325,51.405836175942135,541575.9616293268,169385.92691005196,01/19/2020
Crown & Anchor,19 Park Road,Bromley,,E09000006,Bromley,,E05000125,Plaistow and Sundridge,,0.02163998300315564,51.40812908453971,540701.9618690239,169616.92684514634,01/19/2020
Freelands Tavern,31 Freelands Road,Bromley,,E09000006,Bromley,,E05000125,Plaistow and Sundridge,,0.024611251062558136,51.41061380480179,540900.9618137386,169898.92676901072,01/19/2020
White Horse,64 Palace Road,Bromley,,E09000006,Bromley,,E05000125,Plaistow and Sundridge,,0.020894229954613586,51.408825391898354,540647.9618839149,169692.9268243251,01/19/2020
Anglesey Arms,90 Palace Road,Bromley,,E09000006,Bromley,,E05000125,Plaistow and Sundridge,,0.020894229954613586,51.408825391898354,540647.9618839149,169692.9268243251,01/19/2020
Red Lion,10 North Road,Bromley,,E09000006,Bromley,,E05000125,Plaistow and Sundridge,,0.021879749219563243,51.40997747824189,540712.9618656446,169822.92678923864,01/19/2020
Hop & Rye,54 London Road,Bromley,,E09000006,Bromley,,E05000125,Plaistow and Sundridge,,0.009769752545266725,51.411561599340594,539865.9620962,169975.926747425,01/19/2020
Prince Frederick,31 Nichol Lane,Bromley,,E09000006,Bromley,,E05000125,Plaistow and Sundridge,,0.01930155689445569,51.415750381394155,540515.9619176844,170459.92661639297,01/19/2020
Bonnie's,28-30 Bromley Hill,Bromley,Downham,E09000023,Lewisham,,E05000442,Downham,,-0.0016269612308863815,51.42094725762445,539044.9623188099,170997.92646999215,01/19/2020
Downham Tavern,419 Downham Way,Grove Park,Downham,E09000023,Lewisham,,E05000442,Downham,,0.013136172476824224,51.427628268013926,540050.9620472365,171768.92625865416,01/19/2020
Shortlands Tavern,5 Station Road,Bromley,,E09000006,Bromley,,E05000109,Bromley Town,,0.0042020939664687154,51.40493023909374,539498.962196374,169227.9269504291,01/19/2020
Greyhound,Commonside,Keston,,E09000006,Bromley,,E05000108,Bromley Common and Keston,,0.02858458489082019,51.36354958268831,541321.9617013289,164672.92819015804,01/19/2020
Fox Inn,Heathfield Road,Keston,,E09000006,Bromley,,E05000108,Bromley Common and Keston,,0.0273100414787619,51.36135943642731,541239.9617230879,164426.92825671931,01/19/2020
Crown Inn,Leaves Green Road,Keston,,E09000006,Bromley,,E05000117,Darwin,,0.030205744068063423,51.34203763494014,541500.9616495504,162283.92883865238,01/19/2020
Kings Arms,Leaves Green Rd,Keston,,E09000006,Bromley,,E05000117,Darwin,,0.029645456210684304,51.33520347685677,541482.9616530574,161522.9290473367,01/19/2020
New Inn,59 Station Approach,Hayes,,E09000006,Bromley,,E05000119,Hayes and Coney Hall,,0.011302069882955979,51.375996372109775,540080.9620343072,166023.9278232031,01/19/2020
Real Ale Way,"55 Station Approach, Hayes",Hayes,,E09000006,Bromley,,E05000119,Hayes and Coney Hall,,0.011535146289121225,51.3763970396319,540095.9620303538,166068.92781085725,01/19/2020
Pie & Pint Bar,6 Bourne Way,Hayes,,E09000006,Bromley,,E05000119,Hayes and Coney Hall,,0.006895637206408839,51.37610784270458,539773.9621186703,166027.92782220233,01/19/2020
George,29 Hayes Street,Hayes,,E09000006,Bromley,,E05000119,Hayes and Coney Hall,,0.01831303028805495,51.37989558609414,540556.9619060045,166470.92770095915,01/19/2020
Crooked Billet,286 Southborough Lane,Bromley,,E09000006,Bromley,,E05000108,Bromley Common and Keston,,0.05681240200470426,51.3898737690461,543204.9611881652,167654.92737999244,01/19/2020
Chequers,177 Southborough Lane,Bromley,,E09000006,Bromley,,E05000106,Bickley,,0.04518699261467155,51.39025701559228,542394.9614080896,167674.92737407517,01/19/2020
Two Doves,37 Oakley Road Kent,Bromley Common,Bromley,E09000006,Bromley,,E05000108,Bromley Common and Keston,,0.03966160483073325,51.372323021050235,542065.9614975268,165669.92791884497,01/19/2020
Bird in Hand,62 Gravel Road,Bromley Common,Bromley,E09000006,Bromley,,E05000108,Bromley Common and Keston,,0.04266991327119019,51.37438391199831,542268.9614419767,165904.92785541067,01/19/2020
Bricklayers Arms,141-143 Masons Hill,Bromley,,E09000006,Bromley,,E05000109,Bromley Town,,0.02562365664064877,51.39577630237602,541016.9617825671,168250.92721788125,01/19/2020
Crown of Bromley,14 Masons Hill,Bromley,,E09000006,Bromley,,E05000109,Bromley Town,,0.025373215442196985,51.395313014573404,541000.9617869654,168198.92723206017,01/19/2020
Chatterton Arms,41 Chatterton Road,Bromley Common,Bromley,E09000006,Bromley,,E05000108,Bromley Common and Keston,,0.035042457532591345,51.39292445233488,541680.9616012119,167951.9272995782,01/19/2020
Crown,155 Bromley Common,Bromley Common,Bromley,E09000006,Bromley,,E05000108,Bromley Common and Keston,,0.034588648976039756,51.3904683602918,541656.9616071827,167677.92737405386,01/19/2020
George Inn,111 High Street,Beckenham,,E09000006,Bromley,,E05000113,Copers Cope,,-0.027685610642304855,51.406999824110976,537274.9627985482,169397.92690579593,01/19/2020
White Horse,215 High Street,Beckenham,,E09000006,Bromley,,E05000113,Copers Cope,,-0.030198762080711615,51.40640357680917,537101.962845565,169326.92692483647,01/19/2020
Kelsey House,75 High Street,Beckenham,,E09000006,Bromley,,E05000113,Copers Cope,,-0.0259529387030749,51.40750124617986,537393.9627661249,169456.92689000187,01/19/2020
O'Neill's,9 High Street,Beckenham,,E09000006,Bromley,,E05000113,Copers Cope,,-0.02512812922263777,51.410625880501286,537441.9627527191,169805.92679539043,01/19/2020
Patrick's Bar,5 High Street,Beckenham,,E09000006,Bromley,,E05000113,Copers Cope,,-0.02512812922263777,51.410625880501286,537441.9627527191,169805.92679539043,01/19/2020
Bricklayers Arms,237 High Street,Beckenham,,E09000006,Bromley,,E05000113,Copers Cope,,-0.031799129009226434,51.40663728863686,536989.9628758281,169349.92691854795,01/19/2020
Slug & Lettuce,150-156 High Street,Beckenham,,E09000006,Bromley,,E05000113,Copers Cope,,-0.02706324096020606,51.40776274230457,537315.9627871782,169483.92688265222,01/19/2020
Eden Park,422 Upper Elmers End Road,Eden Park,Beckenham,E09000006,Bromley,,E05000120,Kelsey and Eden Park,,-0.02692129238027865,51.38967590709043,537379.962772285,167472.92742850096,01/19/2020
Coach & Horses,Burnhill Road,Beckenham,,E09000006,Bromley,,E05000120,Kelsey and Eden Park,,-0.026324770058053094,51.40621252852088,537371.9627725607,169312.9269287624,01/19/2020
Club Langley,2 Hawksbrook Lane,Eden Park,Beckenham,E09000006,Bromley,,E05000120,Kelsey and Eden Park,,-0.0224837815280232,51.38858501778888,537691.9626868007,167359.92745895177,01/19/2020
Elm Tree,116 Croydon Road,Elmers End,Beckenham,E09000006,Bromley,,E05000112,Clock House,,-0.045117565792594204,51.39879358075511,536086.963122767,168452.9271614587,01/19/2020
Chancery,90 Bromley Road,Beckenham,,E09000006,Bromley,,E05000113,Copers Cope,,-0.01799787022787383,51.40691739600975,537948.9626160188,169406.92690384004,01/19/2020
Jolly Woodman,9 Chancery Lane,Beckenham,,E09000006,Bromley,,E05000113,Copers Cope,,-0.018644059975706166,51.40660457390008,537904.9626281221,169370.92691348615,01/19/2020
Railway Hotel,"Red Lodge Road,",West Wickham,,E09000006,Bromley,,E05000127,West Wickham,,-0.01314358773494711,51.380225967020245,538366.9625014238,166447.92770747677,01/19/2020
Wheatsheaf,135 High Street,West Wickham,,E09000006,Bromley,,E05000127,West Wickham,,-0.02110791891813977,51.37681755700567,537822.9626484634,166053.92781471665,01/19/2020
Swan,2-4 High Street,West Wickham,,E09000006,Bromley,,E05000127,West Wickham,,-0.01612224486424008,51.37613983114342,538171.9625538717,165987.9278323517,01/19/2020
Coney,35 Croydon Road,Coney Hall,,E09000006,Bromley,,E05000119,Hayes and Coney Hall,,0.002026639713991297,51.37022001407329,539452.9622075327,165363.9280026002,01/19/2020
Sovereign of the Seas,109-111 Queensway,Petts Wood,Orpington,E09000006,Bromley,,E05000124,Petts Wood and Knoll,,0.07184494736814034,51.38951006529308,544251.9609045157,167643.9273823005,01/19/2020
One Inn The Wood,209 Petts Wood Road,Petts Wood,Orpington,E09000006,Bromley,,E05000124,Petts Wood and Knoll,,0.07394064784956392,51.39008449867107,544395.9608655522,167711.92736341112,01/19/2020
Daylight Inn,Station Square,Petts Wood,Orpington,E09000006,Bromley,,E05000124,Petts Wood and Knoll,,0.07518570590271778,51.389010303684465,544485.9608414008,167594.92739494215,01/19/2020
Bull Inn,Main Road,St Paul's Cray,Orpington,E09000006,Bromley,,E05000114,Cray Valley East,,0.11771505149382205,51.40390511796748,547396.9600475974,169335.9269221283,01/19/2020
White Swan,21 Kent Road,St Mary Cray,Orpington,E09000006,Bromley,,E05000114,Cray Valley East,,0.11236363523981362,51.38636709749852,547080.9601338664,167374.9274561362,01/19/2020
Beech Tree,75 Wellington Road,St Mary Cray,Orpington,E09000006,Bromley,,E05000114,Cray Valley East,,0.11124203740487791,51.38479564386403,547007.9601533647,167197.9275041764,01/19/2020
Cricketers,93 Chislehurst Road,Orpington,,E09000006,Bromley,,E05000124,Petts Wood and Knoll,,0.10042458336762178,51.38145618286126,546265.960355842,166804.9276104936,01/19/2020
White Hart,106 High St,Orpington,,E09000006,Bromley,,E05000124,Petts Wood and Knoll,,0.10250647033960959,51.37953032628271,546416.9603154903,166594.92766752915,01/19/2020
Harvest Moon,141-143 High Street,Orpington,,E09000006,Bromley,,E05000122,Orpington,,0.10140881229766636,51.377841420126096,546345.9603354549,166404.92771931138,01/19/2020
Maxwell,Station Road,Orpington,,E09000006,Bromley,,E05000122,Orpington,,0.09464302229509647,51.37253999158113,545891.960458555,165801.92788332445,01/19/2020
Royal Oak,High Street,Green St Green,Orpington,E09000006,Bromley,,E05000110,Chelsfield and Pratts Bottom,,0.08917328864004027,51.35146840337202,545577.9605403307,163447.92852086015,01/19/2020
Queen's Head,73 High Street,Green St Green,Orpington,E09000006,Bromley,,E05000110,Chelsfield and Pratts Bottom,,0.08923985768778407,51.35293308317148,545577.9605410424,163610.9284765573,01/19/2020
Rose & Crown,Farnborough Way,Green St Green,Orpington,E09000006,Bromley,,E05000117,Darwin,,0.08821496456049867,51.350289414885474,545514.9605571243,163314.92855692783,01/19/2020
Chelsfield,1 Windsor Drive,Chelsfield,Orpington,E09000006,Bromley,,E05000110,Chelsfield and Pratts Bottom,,0.10532368026204186,51.35635018712362,546686.960240607,164022.92836501304,01/19/2020
Woodman,50 High Street,Farnborough,Orpington,E09000006,Bromley,,E05000118,Farnborough and Crofton,,0.06997651599342945,51.3592194673123,544216.9609128404,164271.92829950963,01/19/2020
Change of Horses,87 High Street,Farnborough,Orpington,E09000006,Bromley,,E05000118,Farnborough and Crofton,,0.06772096922317528,51.359529086025496,544058.9609557898,164301.9282916492,01/19/2020
Bulls Head,Rushmore Hill,Pratts Bottom,Orpington,E09000006,Bromley,,E05000110,Chelsfield and Pratts Bottom,,0.11177491006267065,51.34014508909452,547187.9601052469,162233.92885369313,01/19/2020
Bo Peep,Hewitts Road,Chelsfield,Orpington,E09000006,Bromley,,E05000110,Chelsfield and Pratts Bottom,,0.13751727285195245,51.35029868234211,548947.9596277777,163414.92853340524,01/19/2020
Five Bells,Church Road,Chelsfield,Orpington,E09000006,Bromley,,E05000110,Chelsfield and Pratts Bottom,,0.1274899267468256,51.357055516890235,548227.959821443,164145.92833184527,01/19/2020
Queen's Head,25 High Street,Downe,Orpington,E09000006,Bromley,,E05000117,Darwin,,0.05387216619169143,51.33666059428056,543165.9611983469,161731.92898976352,01/19/2020
George & Dragon,26 High Street,Downe,Orpington,E09000006,Bromley,,E05000117,Darwin,,0.05372258988033514,51.33620456110887,543156.9612008596,161680.92900356458,01/19/2020
Whyte Lyon (Ye Olde),Farnborough Common,Locksbottom,Orpington,E09000006,Bromley,,E05000118,Farnborough and Crofton,,0.057232922624144415,51.36396732425988,543314.9611565119,164774.92816072505,01/19/2020
British Queen,427 Crofton Road,Locksbottom,Orpington,E09000006,Bromley,,E05000118,Farnborough and Crofton,,0.05453966468267596,51.366703426600736,543118.9612086854,165073.9280779019,01/19/2020
Black Horse,318 Crofton Road,Locksbottom,Orpington,E09000006,Bromley,,E05000118,Farnborough and Crofton,,0.05672060945680429,51.368247884071984,543265.9611692508,165249.92803026654,01/19/2020
Buff,Pinewood Drive,Orpington,,E09000006,Bromley,,E05000110,Chelsfield and Pratts Bottom,,0.08667679636787,51.358797270613564,545380.9605970401,164257.92830076878,01/19/2020
Queens Head,2 High Street,Chislehurst,,E09000006,Bromley,,E05000111,Chislehurst,,0.06787714696421679,51.418186102025295,543885.9610044444,170824.92651515536,01/19/2020
Gordon Arms,47 Park Road,Chislehurst,,E09000006,Bromley,,E05000111,Chislehurst,,0.06862357722059716,51.41910818332729,543934.9609908444,170928.92648699996,01/19/2020
Imperial Arms,Old Hill,Chislehurst,,E09000006,Bromley,,E05000111,Chislehurst,,0.0608085687903328,51.408769167894675,543423.9611269082,169763.92680831795,01/19/2020
Rambler's Rest,Mill Place,Chislehurst,,E09000006,Bromley,,E05000111,Chislehurst,,0.06197035093141799,51.40870377925677,543504.9611048684,169758.9268096488,01/19/2020
Bickley,Chislehurst Road,Chislehurst,,E09000006,Bromley,,E05000111,Chislehurst,,0.055827576947672465,51.40767856094799,543080.9612198692,169632.92684372357,01/19/2020
Tigers Head,Watts Lane,Chislehurst,,E09000006,Bromley,,E05000111,Chislehurst,,0.06900855079966504,51.40948802339054,543991.9609722215,169859.92678074766,01/19/2020
Crown Inn,School Road,Chislehurst,,E09000006,Bromley,,E05000111,Chislehurst,,0.07295809077861395,51.41065023746475,544262.9608983066,169996.92674232204,01/19/2020
Bull's Head Hotel,Royal Parade,Chislehurst,,E09000006,Bromley,,E05000111,Chislehurst,,0.07537331260721356,51.411587704257016,544427.9608532577,170105.92671224615,01/19/2020
Sydney Arms,Old Perry Street,Chislehurst,,E09000006,Bromley,,E05000111,Chislehurst,,0.08669158383826334,51.41507368546201,545203.9606427231,170515.92660211615,01/19/2020
Man on the Moon,"112 Headley Drive, New Addington",Croydon,,E09000008,Croydon,,E05011470,New Addington North,,-0.01804983051743854,51.35214354247703,538109.9625727639,163315.92855807068,01/19/2020
Keg & Grill,1 South End,Croydon,,E09000008,Croydon,,E05011484,South Croydon,,-0.09874131111592606,51.36688900510577,532448.9641105204,164806.92815119855,01/19/2020
Joker,73 South End,Croydon,,E09000008,Croydon,,E05011484,South Croydon,,-0.09872085165193514,51.365647641777045,532453.964109372,164668.92818931228,01/19/2020
Obia Bar & Grill,49c South End,Croydon,,E09000008,Croydon,,E05011484,South Croydon,,-0.09872085165193514,51.365647641777045,532453.964109372,164668.92818931228,01/19/2020
Surrey Cricketers,23 West Street,Croydon,,E09000008,Croydon,,E05011468,Fairfield,,-0.1005843785168162,51.36817792499301,532316.9641460805,164946.9281131088,01/19/2020
Apatura Lounge Restaurant,14 South End,Croydon,,E09000008,Croydon,,E05011468,Fairfield,,-0.09916643656240308,51.367030801753415,532418.9641185948,164821.92814697977,01/19/2020
Scream Lounge,20 South End,Croydon,,E09000008,Croydon,,E05011468,Fairfield,,-0.09928924270733647,51.36649321655577,532411.9641205708,164761.92816354445,01/19/2020
Treehouse,78 South End,Croydon,,E09000008,Croydon,,E05011468,Fairfield,,-0.09924869138061894,51.36573714806905,532416.964119344,164677.92818676995,01/19/2020
Skylark,34-36 South End,Croydon,,E09000008,Croydon,,E05011468,Fairfield,,-0.09924869138061894,51.36573714806905,532416.964119344,164677.92818676995,01/19/2020
Matthews Yard,1 Matthews Yard,Croydon,,E09000008,Croydon,,E05011468,Fairfield,,-0.10109493459058976,51.3721610649373,532269.9641586645,165388.9279947675,01/19/2020
Milan Bar,16 High Street,Croydon,,E09000008,Croydon,,E05011468,Fairfield,,-0.10078756035799079,51.37299242021251,532288.9641535381,165481.92796986597,01/19/2020
Slug & Lettuce,10 Park Lane,Croydon,,E09000008,Croydon,,E05011468,Fairfield,,-0.09730612072041647,51.373790243767694,532528.9640890141,165576.9279441483,01/19/2020
George,17-21 George Street,Croydon,,E09000008,Croydon,,E05011468,Fairfield,,-0.09857066330061319,51.37413452303796,532439.9641129395,165612.9279345856,01/19/2020
Cronx,"Units 3 & 4, Boxpark Croydon, 99 George Street",Croydon,,E09000008,Croydon,,E05011468,Fairfield,,-0.09467827981509003,51.37479070720711,532708.9640406864,165692.9279126437,01/19/2020
Beatbox,"Units 22-26, Ground Floor, Boxpark Croydon",Croydon,,E09000008,Croydon,,E05011468,Fairfield,,-0.09467827981509003,51.37479070720711,532708.9640406864,165692.9279126437,01/19/2020
Green Dragon,58 High Street,Croydon,,E09000008,Croydon,,E05011468,Fairfield,,-0.10053685928055285,51.37106387499904,532311.9641473797,165267.9280271575,01/19/2020
Memory Box,80-88 High Street,Croydon,,E09000008,Croydon,,E05011468,Fairfield,,-0.10053685928055285,51.37106387499904,532311.9641473797,165267.9280271575,01/19/2020
Crown & Pepper,242 High Street,Croydon,,E09000008,Croydon,,E05011468,Fairfield,,-0.09986511968018218,51.368894681515265,532364.9641331274,165027.92809149745,01/19/2020
South Beats,282 High Street,Croydon,,E09000008,Croydon,,E05011468,Fairfield,,-0.09945462509717559,51.36805167963892,532395.9641247716,164934.92811647838,01/19/2020
Spreadeagle,39-41 Katharine Street,Croydon,,E09000008,Croydon,,E05011468,Fairfield,,-0.09924069650737923,51.37252667525792,532397.9641242254,165432.92798293027,01/19/2020
Ship,47 High Street,Croydon,,E09000008,Croydon,,E05011468,Fairfield,,-0.10006559288899061,51.372036456891756,532341.9641392926,165376.92799796327,01/19/2020
Dog & Bull,24 Surrey Street,Croydon,,E09000008,Croydon,,E05011468,Fairfield,,-0.1015692429479332,51.37285221348353,532234.9641680636,165464.9279744529,01/19/2020
Market Tavern,1-4 Surrey Street,Croydon,,E09000008,Croydon,,E05011468,Fairfield,,-0.1015692429479332,51.37285221348353,532234.9641680636,165464.9279744529,01/19/2020
Art & Craft CR0,46 Surrey Street,Croydon,,E09000008,Croydon,,E05011468,Fairfield,,-0.100848104385553,51.37257073593529,532285.9641543514,165434.92798244837,01/19/2020
Mr Fox,34 Surrey Street,Croydon,,E09000008,Croydon,,E05011468,Fairfield,,-0.100848104385553,51.37257073593529,532285.9641543514,165434.92798244837,01/19/2020
Royal Standard,1 Sheldon Street,Croydon,,E09000008,Croydon,,E05011468,Fairfield,,-0.10196871345245187,51.369792109003,532215.9641733847,165123.92806569225,01/19/2020
Bulls Head,39 Laud Street,Croydon,,E09000008,Croydon,,E05011468,Fairfield,,-0.1009832407787295,51.36965023630771,532284.9641546782,165109.9280694322,01/19/2020
Bishop's Wine Bar,1129 Whitgift Centre,Croydon,,E09000008,Croydon,,E05011468,Fairfield,,-0.10031534482807207,51.37537687232563,532314.9641465176,165747.92789859168,01/19/2020
Luna,18 High Street,Croydon,,E09000008,Croydon,,E05011468,Fairfield,,-0.10055024927538463,51.37351915275242,532303.9641494956,165540.92795405374,01/19/2020
Dice,36 High Street,Croydon,,E09000008,Croydon,,E05011468,Fairfield,,-0.10056539478077259,51.37245823676616,532305.9641489745,165422.92798565177,01/19/2020
Alchemy,28-30 St George's Walk,Croydon,,E09000008,Croydon,,E05011468,Fairfield,,-0.09805979498160182,51.37293916469844,532478.9641024413,165480.92796999862,01/19/2020
Windmill,224 St James's Road,Croydon,,E09000008,Croydon,,E05011468,Fairfield,,-0.09336413093500247,51.38152294472848,532780.964022221,166443.9277081273,01/19/2020
Two Brewers,221 Gloucester Road,Croydon,,E09000008,Croydon,,E05011479,Selhurst,,-0.08982987610664978,51.388057122996166,533007.963959305,167176.927508966,01/19/2020
Bedford Tavern,16 Sydenham Road,Croydon,,E09000008,Croydon,,E05011468,Fairfield,,-0.09443861700020093,51.38021847770861,532709.9640411962,166296.92774813809,01/19/2020
Olde Clock Tower,35 Whitehorse Road,Croydon,,E09000008,Croydon,,E05011479,Selhurst,,-0.09774592115727036,51.38502040436206,532465.9641076067,166824.9276039205,01/19/2020
Pawson's Arms,69 Pawson's Road,Croydon,,E09000008,Croydon,,E05011479,Selhurst,,-0.0960172481797917,51.39307686604229,532562.9640798098,167723.92736020475,01/19/2020
Lion Inn,182 Pawson's Road,Croydon,,E09000008,Croydon,,E05011464,Bensham Manor,,-0.0990027890681076,51.391794420142894,532358.9641358781,167575.92740070628,01/19/2020
Phoenix,12 Station Road,Croydon,,E09000008,Croydon,,E05011468,Fairfield,,-0.10153019119611797,51.378660932974896,532220.964172648,166110.92779907928,01/19/2020
Old Fox & Hounds,1 London Road,Croydon,,E09000008,Croydon,,E05011468,Fairfield,,-0.10372878423475612,51.378660541084066,532067.9642143081,166106.92780031374,01/19/2020
Saints & Sinners,482 London Road,Croydon,,E09000008,Croydon,,E05011488,West Thornton,,-0.1107792385172668,51.38750633051695,531551.9643546509,167077.92753626563,01/19/2020
Golden Lion,144 Stanley Road,Croydon,,E09000008,Croydon,,E05011488,West Thornton,,-0.11624501254082358,51.38670396834442,531173.9644564681,166978.92756356788,01/19/2020
Wandle Arms,90 Waddon New Road,Croydon,,E09000008,Croydon,,E05011487,Waddon,,-0.10828801739289724,51.37403098519846,531763.9642971962,165583.9279431373,01/19/2020
Waddon,2 Stafford Road,Croydon,,E09000008,Croydon,,E05011487,Waddon,,-0.11685517932419186,51.366588064987155,531188.96445417,164740.92817067186,01/19/2020
Hare & Hounds,325 Purley Way,Croydon,,E09000008,Croydon,,E05011487,Waddon,,-0.11713981918712298,51.37225805026119,531152.9644646056,165370.92800110538,01/19/2020
Plough,Croydon Road,Croydon,Beddington,E09000029,Sutton,,E05000555,Beddington North,,-0.131871226275317,51.3672060131837,530141.9647415251,164782.9281579678,01/19/2020
Harvest Home,27 Beddington Lane,Croydon,,E09000029,Sutton,,E05000555,Beddington North,,-0.1317035198538915,51.372032402596524,530139.964742328,165319.92801204376,01/19/2020
Frankie & Benny's,Valley Leisure Park Purley Way,Croydon,,E09000008,Croydon,,E05011465,Broad Green,,-0.12330028270643166,51.37725783096052,530709.9645855421,165915.9278522617,01/19/2020
Beach Road Cafe Bar,23 Hesterman Way,Croydon,,E09000008,Croydon,,E05011465,Broad Green,,-0.12450070304906824,51.37812234849377,530623.9646087349,166009.92782629275,01/19/2020
Cricketers Inn,"36 Addington Village Road, Addington",Croydon,,E09000008,Croydon,,E05011480,Selsdon & Addington Village,,-0.030009167888513093,51.35860388990073,537257.9628064384,164011.9283681236,01/19/2020
Surprise,107 Upper Shirley Road,Croydon,,E09000008,Croydon,,E05011483,Shirly South,,-0.05345048594838292,51.3677544747241,535598.9632543115,164985.92810356274,01/19/2020
Coombe Lodge,104 Coombe Road,Croydon,,E09000008,Croydon,,E05011484,South Croydon,,-0.07152740951332891,51.36253200540739,534355.9635942546,164371.92827004043,01/19/2020
Orchard,112 Cherry Orchard Road,Croydon,,E09000008,Croydon,,E05011463,Addiscombe West,,-0.08960377079900425,51.37795448953707,533052.9639485329,166053.92781413707,01/19/2020
Oval Tavern,131 Oval Road,Croydon,,E09000008,Croydon,,E05011463,Addiscombe West,,-0.08850492574961794,51.37811642455443,533128.9639280881,166073.92780865612,01/19/2020
Porter & Sorter,Station Road,Croydon,,E09000008,Croydon,,E05011463,Addiscombe West,,-0.09184107636983284,51.37598554474069,532902.9639886892,165830.92787489324,01/19/2020
Alma Tavern,127-129 Lower Addiscombe Road,Croydon,,E09000008,Croydon,,E05011463,Addiscombe West,,-0.08193447140609553,51.3795737550482,533581.9638047569,166247.92776170524,01/19/2020
Cricketers,107 Addiscombe Road,Croydon,,E09000008,Croydon,,E05011463,Addiscombe West,,-0.08378221345702673,51.37524245977337,533465.9638368114,165762.9278925442,01/19/2020
Builders Arms,65 Leslie Park Road,Croydon,,E09000008,Croydon,,E05011463,Addiscombe West,,-0.08682981265592797,51.379348088714465,533241.9638976946,166213.92777072056,01/19/2020
Claret & Ale,"5 Bingham Corner, Lower Addiscombe Road",Addiscombe,,E09000008,Croydon,,E05011462,Addiscombe East,,-0.07343833096762373,51.379991753779876,534171.9636420818,166309.92774545425,01/19/2020
Cricketers,47 Shirley Road,Addiscombe,,E09000008,Croydon,,E05011482,Shirley North,,-0.06275075501719993,51.38159585295108,534910.9634417369,166507.927692484,01/19/2020
Orchard,116 Orchard Way,Croydon,,E09000008,Croydon,,E05011482,Shirley North,,-0.040164969340526054,51.38617505656144,536468.9630193341,167058.92754292715,01/19/2020
Crown,"28 Wickham Road, Shirley",Croydon,,E09000008,Croydon,,E05011482,Shirley North,,-0.054579693999235894,51.3736545217997,535502.9632829677,165639.9279282567,01/19/2020
Shirley Inn,158 Wickham Road,Croydon,,E09000008,Croydon,,E05011482,Shirley North,,-0.05051520296277779,51.37428835177438,535783.9632074967,165717.92790754867,01/19/2020
Forestdale Arms,"Forestdale Centre, Featherbed Lane",Croydon,,E09000008,Croydon,,E05011481,Selsdon Vale & Forestdale,,-0.038024513783751594,51.35086947834661,536722.9629511915,163136.92860680085,01/19/2020
Randall Tavern,"Fieldway, New Addington",Croydon,,E09000008,Croydon,,E05011470,New Addington North,,-0.020194017514454866,51.35470677684243,537952.9626163333,163596.92848108924,01/19/2020
Toby Carvery,"415 Brighton Road, Croydon",South Croydon,,E09000008,Croydon,,E05011484,South Croydon,,-0.09744364707289718,51.355554836575756,532571.9640785708,163548.9284949943,01/19/2020
Purley Arms,345 Brighton Road,South Croydon,,E09000008,Croydon,,E05011484,South Croydon,,-0.09882820672079667,51.35125180804943,532487.9641013169,163067.92862351908,01/19/2020
Whelan's,13 Selsdon Road,South Croydon,,E09000008,Croydon,,E05011484,South Croydon,,-0.09668578705373444,51.36275481147992,532603.964069337,164350.92827703344,01/19/2020
Crown & Sceptre,32 Junction Road,South Croydon,,E09000008,Croydon,,E05011484,South Croydon,,-0.09653418919667521,51.35947889962141,532623.9640644533,163986.92837717012,01/19/2020
Croham Arms,1 Croham Road,South Croydon,,E09000008,Croydon,,E05011484,South Croydon,,-0.09495119053508391,51.362321918560376,532725.964036463,164305.92828929058,01/19/2020
Sir Julian Huxley,152 Addington Road,Selsdon,,E09000008,Croydon,,E05011481,Selsdon Vale & Forestdale,,-0.061895680653618466,51.34365003058964,535081.9633958463,162289.92883614945,01/19/2020
Golden Ark,186 Addington Road,Selsdon,,E09000008,Croydon,,E05011481,Selsdon Vale & Forestdale,,-0.061895680653618466,51.34365003058964,535081.9633958463,162289.92883614945,01/19/2020
Fox,Coulsdon Corner Fox Lane,Coulsdon,,E09000008,Croydon,,E05011474,Old Coulsdon,,-0.1088433372915158,51.29595442361849,531948.9642489282,156900.93030303274,01/19/2020
Gardeners Arms,107 London Road,Mitcham,,E09000024,Merton,,E05000460,Figge's Marsh,,-0.161697238895017,51.41018586936025,527945.9653341016,169509.92687315575,01/19/2020
White Lion of Mortimer,223 London Road,Mitcham,,E09000024,Merton,,E05000460,Figge's Marsh,,-0.1634902920822519,51.40706646271421,527829.9653662491,169159.92696812312,01/19/2020
Kings Arms,268 London Road,Mitcham,,E09000024,Merton,,E05000460,Figge's Marsh,,-0.16419840254694737,51.406618917907174,527781.9653793765,169108.92698206566,01/19/2020
Crown Inn,407 London Road,Mitcham,,E09000024,Merton,,E05000458,Cricket Green,,-0.17219249812122836,51.39797592776113,527249.9655242087,168133.92724881409,01/19/2020
Surrey Arms,Morden Road,Mitcham,,E09000024,Merton,,E05000468,Ravensbury,,-0.1810917493267257,51.400137784419776,526624.9656924733,168358.92718847498,01/19/2020
Windmill,40 Commonside West,Mitcham,,E09000024,Merton,,E05000460,Figge's Marsh,,-0.16156779462641546,51.40301654792829,527974.9653280545,168712.92709034804,01/19/2020
Park Place,54 Commonside West,Mitcham,,E09000024,Merton,,E05000458,Cricket Green,,-0.16042557092183246,51.4003097816218,528061.9653052916,168413.92717221833,01/19/2020
Crown of Mitcham,Carshalton Road,Mitcham,,E09000024,Merton,,E05000458,Cricket Green,,-0.15903823783055032,51.39010833055981,528186.9652698169,167281.92747998593,01/19/2020
Ravensbury,260 Croydon Road,Mitcham,,E09000024,Merton,,E05000458,Cricket Green,,-0.1578583155762723,51.39765260673579,528247.965254566,168122.92725141702,01/19/2020
Tudor Rose,270 Coulsdon Road,Coulsdon,,E09000008,Croydon,,E05011474,Old Coulsdon,,-0.11908165672687908,51.30482427550423,531209.9644486628,157868.93003667166,01/19/2020
Coulsdon Manor Hotel,Coulsdon Court Road,Coulsdon,,E09000008,Croydon,,E05011474,Old Coulsdon,,-0.12507376797232073,51.31728550449799,530756.9645738129,159243.9296666053,01/19/2020
Pembroke,12-16 Chipstead Valley Road,Coulsdon,,E09000008,Croydon,,E05011466,Coulsdon Town,,-0.1391941976922951,51.32084686437306,529762.9648439761,159614.9295653567,01/19/2020
Smugglers Inn,320 Chipstead Valley Road,Coulsdon,,E09000008,Croydon,,E05011466,Coulsdon Town,,-0.15018325865178211,51.319168253439024,529001.9650510787,159408.92962223035,01/19/2020
Plough on the Pond,774 London Road,Thornton Heath,,E09000008,Croydon,,E05011488,West Thornton,,-0.11410289203598241,51.39440337434484,531300.9644235795,167838.92733021092,01/19/2020
Railway Telegraph,19 Brigstock Road,Thornton Heath,,E09000008,Croydon,,E05011464,Bensham Manor,,-0.10155696687897788,51.39779797899061,532163.9641893362,168238.9272186978,01/19/2020
Welcome Inn,300 Parchmore Road,Thornton Heath,,E09000008,Croydon,,E05011486,Thornton Heath,,-0.10448903018784793,51.40684703255843,531933.9642511681,169239.92694745545,01/19/2020
Prince George,2 High Street,Thornton Heath,,E09000008,Croydon,,E05011486,Thornton Heath,,-0.09363213090847781,51.398235829453135,532713.9640386667,168301.92720253736,01/19/2020
Elliotts,5 High Street,Purley,,E09000008,Croydon,,E05011476,Purley & Woodcote,,-0.11569840976422631,51.33840381152498,531349.9644116461,161608.929022374,01/19/2020
Jolly Farmers,7 Purley Road,Purley,,E09000008,Croydon,,E05011476,Purley & Woodcote,,-0.11624511907960865,51.338025901912616,531312.9644216793,161565.9290340258,01/19/2020
Foxley Hatch,8-9 Russell Hill Road,Purley,,E09000008,Croydon,,E05011476,Purley & Woodcote,,-0.11762985627659095,51.33927119193182,531212.9644496387,161701.92899700927,01/19/2020
Pear Tree,908 Brighton Road,Purley,,E09000008,Croydon,,E05011476,Purley & Woodcote,,-0.11565125623626796,51.33955415129068,531349.9644120487,161736.92898763486,01/19/2020
Kenley Hotel,62 Godstone Road,Kenley,,E09000008,Croydon,,E05011469,Kenley,,-0.10047507748269979,51.325657856816036,532446.9641092052,160218.9293972945,01/19/2020
Wattenden Arms,5 Old Lodge Lane,Kenley,,E09000008,Croydon,,E05011469,Kenley,,-0.10288787722366496,51.30752187732649,532330.9641458979,158197.92995154663,01/19/2020
Whistler's Bar,Croydon Park Hotel 7 Altyre Road,Croydon,,E09000008,Croydon,,E05011463,Addiscombe West,,-0.09125848848121525,51.37306234125689,532951.9639752477,165506.9279626581,01/19/2020
Alma,10 Alma Road,Sidcup,Sidcup,E09000004,Bexley,,E05011230,Sidcup,,0.1033243023467555,51.43214172320062,546305.9603461365,172446.92607532418,01/19/2020
White Cross,146 Northcray Road,Bexley,North Cray,E09000004,Bexley,,E05011229,St. Mary's & St. James,,0.13880084246159452,51.430258656623295,548777.9596731872,172308.9261131939,01/19/2020
Seven Stars,400 Footscray  High Street,Sidcup,Foots Cray,E09000004,Bexley,,E05011230,Sidcup,,0.1187094470559505,51.41858173999382,547418.9600400468,170969.9264762898,01/19/2020
Star at Sidcup Place,"Sidcup Place, Chislehurst Road",Sidcup,Sidcup,E09000004,Bexley,,E05011230,Sidcup,,0.10255221212439612,51.42504206220737,546274.960353445,171655.92629165127,01/19/2020
Tailor's Chalk,47-49 High Street,Sidcup,Sidcup,E09000004,Bexley,,E05011230,Sidcup,,0.10365427407794241,51.42617339895003,546347.960333735,171783.92625681806,01/19/2020
Hopper's Hut,1 Invicta Parade. Sidcup High Street,Sidcup,Sidcup,E09000004,Bexley,,E05011230,Sidcup,,0.10675590811759889,51.424489929232834,546568.9602735117,171602.92630647856,01/19/2020
Hill Top Tap,"7-8 Elm Parade, Main Road",Sidcup,Sidcup,E09000004,Bexley,,E05011230,Sidcup,,0.10017760640975558,51.426271727500946,546105.9603995009,171787.92625524057,01/19/2020
Horse & Groom,136 Main Road,Sidcup,Sidcup,E09000004,Bexley,,E05011227,Longlands,,0.09387635370685896,51.42720286471233,545664.9605195593,171878.92622986482,01/19/2020
Charcoal,299 Main Road,Sidcup,Sidcup,E09000004,Bexley,,E05011227,Longlands,,0.08576751284738582,51.430459064458134,545090.9606741996,172224.92613584,01/19/2020
Bear & Ragged Staff,2 London Road,Crayford,Crayford,E09000004,Bexley,,E05011222,Crayford,,0.176533954730004,51.451983688641945,551328.958980102,174801.92543628113,01/19/2020
One Bell,170 Old Road,Crayford,Crayford,E09000004,Bexley,,E05011222,Crayford,,0.1746204600269476,51.45381779534402,551189.9590173342,175001.92538194178,01/19/2020
Duke's Head,53 Crayford High Street,Crayford,Crayford,E09000004,Bexley,,E05011222,Crayford,,0.1762153536561533,51.45345546078817,551301.9589874065,174964.9253920663,01/19/2020
Crayford Arms,37 Crayford High Street,Crayford,Crayford,E09000004,Bexley,,E05011222,Crayford,,0.17739867487654515,51.4523093651099,551387.9589643988,174839.92542609375,01/19/2020
Penny Farthing,3 Waterside,Crayford,Dartford,E09000004,Bexley,,E05011222,Crayford,,0.178477669515047,51.4522983129489,551462.9589444103,174840.9254259665,01/19/2020
Hackney Carriage,165 Station Road,Sidcup,,E09000004,Bexley,,E05011220,Blackfen & Lamorbey,,0.10195606235549844,51.43524188160511,546200.9603747133,172788.92598184157,01/19/2020
Iron Horse,122 Station Road,Sidcup,Sidcup,E09000004,Bexley,,E05011220,Blackfen & Lamorbey,,0.1025696128052599,51.43481720040214,546244.9603628216,172742.92599441193,01/19/2020
Halfway House,188c Halfway Street,Sidcup,Halfway,E09000004,Bexley,,E05011220,Blackfen & Lamorbey,,0.08721745935728364,51.44111689656534,545157.9606564547,173412.92581466527,01/19/2020
Black Boy,Southspring,Sidcup,Avery Hill,E09000011,Greenwich,,E05000219,Eltham South,,0.08478982251965633,51.44500008642721,544976.9607068077,173839.92569962068,01/19/2020
Olde Black Horse,43 Halfway Street,Sidcup,Lamorbey,E09000004,Bexley,,E05011220,Blackfen & Lamorbey,,0.09800868769086105,51.43732703097848,545919.9604502426,173012.92592063738,01/19/2020
George Staples,273 Blackfen Road,Blackfen,,E09000004,Bexley,,E05011220,Blackfen & Lamorbey,,0.10058822053173049,51.45120194053276,546054.9604115711,174560.92550007277,01/19/2020
Jolly Fenman,64-68 Blackfen Road,Sidcup,Blackfen,E09000004,Bexley,,E05011220,Blackfen & Lamorbey,,0.09218254332389636,51.4515141430921,545469.9605716689,174578.9254968164,01/19/2020
Hangar,37 The Oval,Sidcup,Blackfen,E09000004,Bexley,,E05011221,Blendon & Penhill,,0.10243860765495696,51.445116506391855,546202.9603715119,173887.9256828344,01/19/2020
Broken Drum,308 Westwood Lane,Blackfen,,E09000004,Bexley,,E05011220,Blackfen & Lamorbey,,0.10321764446287447,51.45173033758464,546235.9603627538,174624.9254829978,01/19/2020
Wings Sports Bar,Welling United FC.  Park View Road,Welling,Welling,E09000004,Bexley,,E05011226,Falconwood & Welling,,0.11601320766372782,51.46043906251152,547096.9601322879,175618.92521529127,01/19/2020
"Guy, Earl Of Warwick",Park View Road,Welling,Welling,E09000004,Bexley,,E05011226,Falconwood & Welling,,0.11547926585231824,51.4610332428127,547057.960142977,175683.92519776488,01/19/2020
Wrong 'Un,234-236 Broadway,Bexleyheath,,E09000004,Bexley,,E05011219,Bexleyheath,,0.1374124547181311,51.45782053935422,548591.9597208039,175370.92528115294,01/19/2020
Rose & Crown,15 Welling High Street,Welling,Welling,E09000004,Bexley,,E05011226,Falconwood & Welling,,0.11261683460371465,51.46202013047176,546855.960197592,175787.92516959074,01/19/2020
Door Hinge,"11, Welling High Street",Welling,,E09000004,Bexley,,E05011226,Falconwood & Welling,,0.11261683460371465,51.46202013047176,546855.960197592,175787.92516959074,01/19/2020
Nags Head,37 Welling High Street,Welling,Welling,E09000004,Bexley,,E05011226,Falconwood & Welling,,0.11261683460371465,51.46202013047176,546855.960197592,175787.92516959074,01/19/2020
Foresters Arms,344 Upper Wickham Lane,Welling,East Wickham,E09000004,Bexley,,E05011224,East Wickham,,0.10945930925739357,51.47471206358382,546595.960267091,177192.92478684062,01/19/2020
Green Man,168 Wickham Street,Welling,East Wickham,E09000004,Bexley,,E05011224,East Wickham,,0.09219548114549035,51.46690079935979,545421.9605862515,176289.92503075872,01/19/2020
New Cross Turnpike,55 Bellegrove Road,Welling,Welling,E09000004,Bexley,,E05011226,Falconwood & Welling,,0.10438982111565483,51.462815590867926,546281.9603528752,175859.9251495006,01/19/2020
Plough & Harrow,143 Bellegrove Road,Welling,Welling,E09000004,Bexley,,E05011226,Falconwood & Welling,,0.10046037596931948,51.463461607448636,546006.9604275451,175923.9251316288,01/19/2020
We Anchor In Hope,320 Bellegrove Road,Welling,Welling,E09000004,Bexley,,E05011224,East Wickham,,0.08560289643677305,51.46630782095176,544965.9607081,176210.9250523732,01/19/2020
Prince of Wales,13a Woolwich Road,Belvedere,Upper Belvedere,E09000004,Bexley,,E05011218,Belvedere,,0.14224864879005147,51.48360509585227,548843.9596523026,178247.92449887533,01/19/2020
Eardley Arms,44 Woolwich Road,Belvedere,Upper Belvedere,E09000004,Bexley,,E05011218,Belvedere,,0.14078406819062148,51.484009551218485,548740.9596804542,178289.92448736395,01/19/2020
Royal Standard,39 Nuxley Road,Belvedere,Upper Belvedere,E09000004,Bexley,,E05011218,Belvedere,,0.14574118257880472,51.4819134987142,549091.9595847614,178066.9245487416,01/19/2020
Fox,79 Nuxley Road,Belvedere,Upper Belvedere,E09000004,Bexley,,E05011218,Belvedere,,0.144595153207617,51.4811250993597,549014.9596057587,177976.92457342322,01/19/2020
Village Inn,104 Nuxley Road,Belvedere,Upper Belvedere,E09000004,Bexley,,E05011218,Belvedere,,0.14343356464858745,51.48000423338254,548937.9596267377,177849.92460827745,01/19/2020
Victoria,2 Victoria Street,Belvedere,Upper Belvedere,E09000004,Bexley,,E05011218,Belvedere,,0.14196578354599906,51.48218038103076,548828.9596563927,178088.92454255687,01/19/2020
Halfway House,165 Lower Road,Belvedere,Belvedere,E09000004,Bexley,,E05011218,Belvedere,,0.16141344030785015,51.49048372739322,550151.9592990066,179051.9242803012,01/19/2020
Morgan,1 Clydesdale Way,Belvedere,Belvedere,E09000004,Bexley,,E05011218,Belvedere,,0.15639082465354895,51.49698824934261,549781.9594006105,179764.92408637947,01/19/2020
Great Harry,99 Parsonage Manor Way,Belvedere,Belvedere,E09000004,Bexley,,E05011228,Northumberland Heath,,0.14837192146156464,51.477521703984635,549288.9595314568,177583.92468143575,01/19/2020
Kings Head,65 Bexley High Street,Bexley,Bexley,E09000004,Bexley,,E05011229,St. Mary's & St. James,,0.15001673146361727,51.4417804134207,549519.9594704423,173612.92576188984,01/19/2020
Tanyard Lane,61-63 Bexley High Street,Bexley,Bexley,E09000004,Bexley,,E05011229,St. Mary's & St. James,,0.15001673146361727,51.4417804134207,549519.9594704423,173612.92576188984,01/19/2020
Railway Tavern,38 Bexley High Street,Bexley,Bexley,E09000004,Bexley,,E05011229,St. Mary's & St. James,,0.14908772894859568,51.441302832707464,549456.9594877707,173557.92577677226,01/19/2020
George,74 Bexley High Street,Bexley,Bexley,E09000004,Bexley,,E05011229,St. Mary's & St. James,,0.15009286401742963,51.441563184624385,549525.9594688481,173588.9257683435,01/19/2020
Three Blackbirds,118 Blendon Road,Bexley,Blendon,E09000004,Bexley,,E05011221,Blendon & Penhill,,0.12257319102298031,51.44825187665195,547591.9599949503,174276.92557785258,01/19/2020
Anchor,23-31 Bridgen Road,Bexley,Bridgen,E09000004,Bexley,,E05011221,Blendon & Penhill,,0.13384721090887153,51.44527734982473,548384.959778237,173968.92566357373,01/19/2020
Millers Arms,81 Bexley High Street,Bexley,Bexley,E09000004,Bexley,,E05011229,St. Mary's & St. James,,0.1518076175599189,51.44100113213624,549646.9594359008,173529.9257840817,01/19/2020
Traders,"Holiday Inn, Southwold Road",Bexley,Bexley,E09000004,Bexley,,E05011229,St. Mary's & St. James,,0.15411868254796832,51.44638143688365,549789.9593961178,174132.9256187668,01/19/2020
Black Horse,63 Albert Road,Bexley,Bexley,E09000004,Bexley,,E05011229,St. Mary's & St. James,,0.14993994933878707,51.44535201826003,549502.9594748536,174009.9256530559,01/19/2020
Miller & Carter,Hall Place,Bexley,Hall Place,E09000004,Bexley,,E05011222,Crayford,,0.1602553990405088,51.44803112560768,550210.9592804892,174328.92556404375,01/19/2020
Albany,13 Steynton Avenue,Bexley,Albany Park,E09000004,Bexley,,E05011221,Blendon & Penhill,,0.1277589744645516,51.43628715797304,547990.9598873835,172956.9259368686,01/19/2020
Kings Arms,156 Broadway,Bexleyheath,Bexleyheath,E09000004,Bexley,,E05011219,Bexleyheath,,0.1434604985300301,51.45694569108361,549014.9596059571,175285.92530415964,01/19/2020
Carved,146 Broadway,Bexleyheath,Bexleyheath,E09000004,Bexley,,E05011219,Bexleyheath,,0.1434604985300301,51.45694569108361,549014.9596059571,175285.92530415964,01/19/2020
Furze Wren,"6 Market Place, Broadway Square",Bexleyheath,,E09000004,Bexley,,E05011219,Bexleyheath,,0.1466132202257289,51.45664518458154,549234.9595462044,175258.92531153717,01/19/2020
Rose,179 Broadway,Bexleyheath,Bexleyheath,E09000004,Bexley,,E05011219,Bexleyheath,,0.14078411320600873,51.45696762455355,548828.959656536,175282.92530495598,01/19/2020
Brewers Fayre,51 Albion Road,Bexleyheath,Bexleyheath,E09000004,Bexley,,E05011219,Bexleyheath,,0.14202518738524786,51.45519131911549,548920.9596319355,175087.92535786045,01/19/2020
Marriott Hotel,1 Broadway,Bexleyheath,Bexleyheath,E09000004,Bexley,,E05011219,Bexleyheath,,0.15218167398633542,51.455068230915046,549626.9594398867,175094.92535639962,01/19/2020
Prince Albert,2 Broadway,Bexleyheath,Bexleyheath,E09000004,Bexley,,E05011219,Bexleyheath,,0.1527044967014519,51.45547230740127,549661.9594303026,175140.92534395342,01/19/2020
Twin Palace,6-8 Broadway,Bexleyheath,Bexleyheath,E09000004,Bexley,,E05011219,Bexleyheath,,0.1527044967014519,51.45547230740127,549661.9594303026,175140.92534395342,01/19/2020
Frankie & Benny's,28-30 Broadway,Bexleyheath,Bexleyheath,E09000004,Bexley,,E05011219,Bexleyheath,,0.14998418285968407,51.45608878955474,549470.9594821713,175203.92532668292,01/19/2020
Coach House,40 Watling Street,Bexleyheath,Bexleyheath,E09000004,Bexley,,E05011219,Bexleyheath,,0.154728929839963,51.45505740828325,549803.9593916666,175098.92535539542,01/19/2020
Golden Lion,258 Broadway,Bexleyheath,Bexleyheath,E09000004,Bexley,,E05011223,Crook Log,,0.13553755655073402,51.45805255977101,548460.9597563869,175392.9252752448,01/19/2020
Crook Log,Crook Log,Bexleyheath,Crook Log,E09000004,Bexley,,E05011223,Crook Log,,0.12724543027610602,51.45896774742069,547881.9599152367,175477.92525271332,01/19/2020
Danson Stables,Danson Park,Bexleyheath,Crook Log,E09000004,Bexley,,E05011223,Crook Log,,0.12260556354980953,51.45576942101755,547569.9600012398,175112.92535131873,01/19/2020
Royal Oak,66 Mount Road,Bexleyheath,Bexleyheath,E09000004,Bexley,,E05011223,Crook Log,,0.12938889935714448,51.45213911598672,548052.9598687675,174722.92545583594,01/19/2020
Celebrations @ Bexley,59 Lion Road,Bexleyheath,Bexleyheath,E09000004,Bexley,,E05011223,Crook Log,,0.13616462489744896,51.45637743018366,548509.9597434175,175207.92532519228,01/19/2020
Robin Hood & Little John,78 Lion Road,Bexleyheath,,E09000004,Bexley,,E05011223,Crook Log,,0.13596475339842848,51.454564488219575,548501.9597459787,175005.92537973146,01/19/2020
Volunteer,46 Church Road,Bexleyheath,Bexleyheath,E09000004,Bexley,,E05011219,Bexleyheath,,0.13781862755425875,51.460349157773514,548611.9597155416,175652.92520495917,01/19/2020
William Camden,91 Avenue Road,Bexleyheath,Bexleyheath,E09000004,Bexley,,E05011223,Crook Log,,0.1318588667700515,51.46220234837273,548191.9598310143,175846.92515253264,01/19/2020
Jolly Millers,111 Mayplace Road West,Bexleyheath,Bexleyheath,E09000004,Bexley,,E05011219,Bexleyheath,,0.15219563865519325,51.45842235109581,549616.959442155,175467.92525526654,01/19/2020
Kentish Belle,8 Pickford Lane,Bexleyheath,Bexleyheath,E09000004,Bexley,,E05011223,Crook Log,,0.13306626602353389,51.46432071612002,548268.9598108513,176084.92508813855,01/19/2020
Yacht,167 Long Lane,Bexleyheath,Bexleyheath,E09000004,Bexley,,E05011219,Bexleyheath,,0.14565472687742523,51.46597049342986,549137.9595719918,176293.9250323447,01/19/2020
Traveller's Home,60-66 Long Lane,Bexleyheath,Bexleyheath,E09000004,Bexley,,E05011219,Bexleyheath,,0.15195834472741931,51.4625545000957,549586.9594503454,175926.92513138632,01/19/2020
Earl Haig,The Pantiles,Bexleyheath,Bexleyheath,E09000004,Bexley,,E05011233,West Heath,,0.14055562785376935,51.472988331199375,548760.9596751761,177063.9248232732,01/19/2020
Red Barn,Barnehust Road,Bexleyheath,Barnehurst,E09000004,Bexley,,E05011217,Barnehurst,,0.15832628206622226,51.46570188375116,550018.9593351651,176289.92503342003,01/19/2020
Bird & Barrel,100 Barnehurst Road,Bexleyheath,Barnehurst,E09000004,Bexley,,E05011217,Barnehurst,,0.15832628206622226,51.46570188375116,550018.9593351651,176289.92503342003,01/19/2020
Ship,110 West Street,Erith,Erith,E09000004,Bexley,,E05011225,Erith,,0.17214253927046094,51.48558204614587,550912.9590919019,178528.92442167643,01/19/2020
Duchess Of Kent,143 Brook Street,Erith,Northumberland Heath,E09000004,Bexley,,E05011228,Northumberland Heath,,0.15714180360179125,51.47415912821122,549908.9593653524,177227.92477748287,01/19/2020
Brewer's Arms,22 Brook Street,Erith,Northumberland Heath,E09000004,Bexley,,E05011228,Northumberland Heath,,0.1599919021273757,51.47230804188817,550112.9593107043,177027.92483177612,01/19/2020
Running Horses,23 Erith High Street,Erith,Erith,E09000004,Bexley,,E05011225,Erith,,0.1810293912058491,51.48165792846115,551542.9589198716,178110.92453589756,01/19/2020
Corner Pin,Slade Green Road,Erith,Slade Green,E09000004,Bexley,,E05011231,Slade Green & Northend,,0.19281659001046905,51.47157271606765,552394.9586894728,177013.92483485956,01/19/2020
Royal Oak,270 Bexley Road,Erith,Northumberland Heath,E09000004,Bexley,,E05011228,Northumberland Heath,,0.16187581047044455,51.47256108694515,550242.959275957,177059.9248227775,01/19/2020
Pepper's Ghost,777 High Road,Leyton,London,E09000031,Waltham Forest,,E05000604,Leyton,,-0.008745980171295374,51.57299318403889,538089.9625790218,187891.92187973968,01/19/2020
Lion & Key Hotel,475 High Road,Leyton,London,E09000031,Waltham Forest,,E05000604,Leyton,,-0.011290930733620766,51.56427755588308,537939.9626194541,186917.9221436592,01/19/2020
Coach & Horses,391 High Road,Leyton,London,E09000031,Waltham Forest,,E05000604,Leyton,,-0.010178601139149477,51.561003354485116,538026.9625962551,186555.92224249186,01/19/2020
Leyton Technical,"265B High Road, Leyton",Leyton,London,E09000031,Waltham Forest,,E05000604,Leyton,,-0.00818927078683036,51.55931494918356,538169.962558059,186371.92229244695,01/19/2020
William the Fourth,816 High Road Leyton,Leyton,London,E09000031,Waltham Forest,,E05000595,Forest,,-0.011141295062134796,51.57465248785784,537918.9626253517,188071.9218313673,01/19/2020
Signature Brewery Tap,"Unit 25, Leyton Business Centre, Etloe Road",Leyton,,E09000031,Waltham Forest,,E05000604,Leyton,,-0.022084503297371848,51.564253136335125,537191.9628227246,186894.92215026345,01/19/2020
Bootlaces,596 Lea Bridge Road,Leyton,London,E09000031,Waltham Forest,,E05000603,Lea Bridge,,-0.013764413773624426,51.57440018068755,537737.962674075,188038.92184042383,01/19/2020
Drum,557-559 Lea Bridge Road,Leyton,London,E09000031,Waltham Forest,,E05000603,Lea Bridge,,-0.013514810905804748,51.575160324122066,537752.9626700048,188123.92181750335,01/19/2020
Hare & Hounds,282 Lea Bridge Road,Leyton,London,E09000031,Waltham Forest,,E05000603,Lea Bridge,,-0.02787538609237089,51.569143619818455,536775.9629355727,187427.92200520646,01/19/2020
George Tavern,373 Commercial Road,London,Stepney,E09000030,Tower Hamlets,,E05009334,Stepney Green,,-0.05288586523792064,51.514346279818035,535204.9633622072,181287.92367284704,01/19/2020
Peacock,145 Aylward Street,London,Stepney,E09000030,Tower Hamlets,,E05009334,Stepney Green,,-0.046306659171060284,51.515855564002706,535656.9632399364,181467.92362460663,01/19/2020
Walnut Tree,857-861 High Road,Leytonstone,London,E09000031,Waltham Forest,,E05000605,Leytonstone,,0.01222780268994295,51.56952370516946,539553.9621804772,187545.92197392898,01/19/2020
Sir Alfred Hitchcock Hotel,145 Whipps Cross Road,Leytonstone,London,E09000031,Waltham Forest,,E05000595,Forest,,0.011880716361192435,51.57637297405451,539508.9621913165,188306.92176820413,01/19/2020
Eagle,73 Hollybush Hill,Wanstead,Snaresbrook,E09000026,Redbridge,,E05011255,Wanstead Village,,0.020724545686585043,51.58314501740236,540100.9620298337,189076.9215577211,01/19/2020
Cuckfield,31 High Street,Wanstead,London,E09000026,Redbridge,,E05011255,Wanstead Village,,0.024394657827510432,51.57965560104021,540365.9619577711,188695.92166126403,01/19/2020
Duke,79 Nightingale Lane,Wanstead,London,E09000026,Redbridge,,E05011255,Wanstead Village,,0.028088432143326316,51.58222655186922,540613.9618899265,188988.9215799445,01/19/2020
Nightingale on the Green,51 Nightingale Lane,Wanstead,London,E09000026,Redbridge,,E05011255,Wanstead Village,,0.028088432143326316,51.58222655186922,540613.9618899265,188988.9215799445,01/19/2020
Palm Tree,127 Grove Road,Bow,London,E09000030,Tower Hamlets,,E05009320,Bow West,,-0.03893220044049923,51.529149530043526,536128.9631122003,182959.923219333,01/19/2020
Luppolo,36-38 High Street Wanstead,Wanstead,London,E09000026,Redbridge,,E05011255,Wanstead Village,,0.027345545984796372,51.576232445944505,540580.9618997731,188320.92176401964,01/19/2020
George,159 High Street Wanstead,Wanstead,London,E09000026,Redbridge,,E05011255,Wanstead Village,,0.027951188400465173,51.57654569881996,540621.9618886187,188356.92175407312,01/19/2020
Manor House,129 High St,Wanstead,,E09000026,Redbridge,,E05011255,Wanstead Village,,0.027951188400465173,51.57654569881996,540621.9618886187,188356.92175407312,01/19/2020
Red Lion,640 High Road Leytonstone,Leytonstone,London,E09000031,Waltham Forest,,E05000605,Leytonstone,,0.01155134356320081,51.568582103457736,539509.9621926184,187439.92200248456,01/19/2020
Birds,692 High Road,Leytonstone,London,E09000031,Waltham Forest,,E05000605,Leytonstone,,0.01155134356320081,51.568582103457736,539509.9621926184,187439.92200248456,01/19/2020
North Star,24 Browning Road,Leytonstone,London,E09000031,Waltham Forest,,E05000605,Leytonstone,,0.01551558618246689,51.569799951265395,539780.9621187217,187582.92196423153,01/19/2020
O'Neill's,762 High Street,Leytonstone,London,E09000031,Waltham Forest,,E05000605,Leytonstone,,0.014409965532740461,51.570250596766975,539702.9621397718,187630.92195118073,01/19/2020
Bell,468 High Road,Leytonstone,London,E09000031,Waltham Forest,,E05000590,Cann Hall,,0.008743208966648647,51.560851630231134,539338.9622386913,186574.9222357138,01/19/2020
Leytonstone Tavern,119 Harrow Road,Leytonstone,London,E09000031,Waltham Forest,,E05000590,Cann Hall,,0.012496855832117225,51.55927648700279,539603.9621654642,186406.92228076933,01/19/2020
Heathcote & Star,344 Grove Green Road,Leytonstone,London,E09000031,Waltham Forest,,E05000596,Grove Green,,0.0028431328455300296,51.56513415566049,538916.9623533264,187039.92210987804,01/19/2020
Northcote Arms,110 Grove Green Rd,Leyton,London,E09000031,Waltham Forest,,E05000596,Grove Green,,-0.001271700299818771,51.560465261496915,538645.9624293668,186512.92225297494,01/19/2020
Birkbeck Tavern,45 Langthorne Road,Leytonstone,London,E09000031,Waltham Forest,,E05000591,Cathall,,0.0006722093003529753,51.55610663903836,538793.9623876705,186031.9223832672,01/19/2020
Plough & Harrow,419 High Road,Leytonstone,London,E09000031,Waltham Forest,,E05000591,Cathall,,0.006473774284329534,51.55812975111253,539189.9622795356,186267.92231885804,01/19/2020
Shepherd's Inn,483 High Road,Leytonstone,London,E09000031,Waltham Forest,,E05000591,Cathall,,0.007137768735172949,51.559449297172705,539231.9622681867,186415.92227875633,01/19/2020
Urban Bar,176 Whitechapel Road,London,Whitechapel,E09000030,Tower Hamlets,,E05009336,Whitechapel,,-0.0573006114465433,51.519320516725166,534883.9634495233,181832.92352589784,01/19/2020
Blind Beggar,337 Whitechapel Road,London,Whitechapel,E09000030,Tower Hamlets,,E05009333,Spitalfields & Banglatown,,-0.05763125942258266,51.52001842733435,534858.9634566465,181909.92350500013,01/19/2020
Indo,133 Whitechapel Road,London,Whitechapel,E09000030,Tower Hamlets,,E05009333,Spitalfields & Banglatown,,-0.06610198401710757,51.51775745494459,534277.9636132086,181642.92357910285,01/19/2020
Stable,16-18 Whitechapel Rd,Whitechapel,,E09000030,Tower Hamlets,,E05009336,Whitechapel,,-0.06764412588176862,51.51673973408179,534173.9636411578,181526.92361076543,01/19/2020
Castle,44 Commercial Road,London,Whitechapel,E09000030,Tower Hamlets,,E05009336,Whitechapel,,-0.06932542321110356,51.514816026510516,534062.9636714301,181309.92366882524,01/19/2020
Dog & Truck,72 Back Church Lane,London,Whitechapel,E09000030,Tower Hamlets,,E05009336,Whitechapel,,-0.06685903302117237,51.51315668749725,534238.9636235655,181129.92371667648,01/19/2020
Blakesley Arms,53 Station Road,Manor Park,London,E09000025,Newham,,E05000488,Manor Park,,0.04686418326902072,51.55163105297011,542009.9615134209,185622.92249603814,01/19/2020
Golden Fleece,166 Capel Road,Manor Park,London,E09000025,Newham,,E05000488,Manor Park,,0.04508182916612242,51.55466576556009,541876.96154991,185956.92240475764,01/19/2020
William The Conqueror,628-630 Romford Road,Manor Park,London,E09000026,Redbridge,,E05011254,Wanstead Park,,0.03703928041878503,51.562566549394745,541294.9617073007,186819.9221707703,01/19/2020
Good Samaritan,87 Turner Street,London,Whitechapel,E09000030,Tower Hamlets,,E05009336,Whitechapel,,-0.06114718980246904,51.51733388652048,534622.9635193824,181604.9235886034,01/19/2020
Hungerford Arms,240 Commercial Road,London,Whitechapel,E09000030,Tower Hamlets,,E05009332,Shadwell,,-0.05824365308654132,51.5144351474905,534832.9634628338,181287.92367345007,01/19/2020
Thomas Neale,39 Watney Market,London,Whitechapel,E09000030,Tower Hamlets,,E05009332,Shadwell,,-0.056652505285432704,51.51355447649204,534945.9634324522,181192.92369887588,01/19/2020
Dean Swift,2 Deancross Street,London,Whitechapel,E09000030,Tower Hamlets,,E05009332,Shadwell,,-0.05520307518486031,51.51374626438707,535045.9634053728,181216.92369226826,01/19/2020
Black Lion,59-61 High Street,Plaistow,London,E09000025,Newham,,E05000489,Plaistow North,,0.020751985393176253,51.53102321548148,540262.9619892605,183280.92313149944,01/19/2020
Victoria Tavern,28 High Street,Plaistow,London,E09000025,Newham,,E05000489,Plaistow North,,0.021857157447764914,51.5299340012775,540342.9619672318,183161.92316396598,01/19/2020
Lamb,85 Pelly Road,Plaistow,London,E09000025,Newham,,E05000489,Plaistow North,,0.021665754700704046,51.53375025334404,540317.9619748327,183585.92304870294,01/19/2020
Red House,299 Barking Road,Plaistow,London,E09000025,Newham,,E05000477,Canning Town North,,0.01784249816730824,51.52032692565204,540093.9620347031,182085.9234578309,01/19/2020
Charlie's Bar,247 Barking Road,Plaistow,,E09000025,Newham,,E05000477,Canning Town North,,0.01784249816730824,51.52032692565204,540093.9620347031,182085.9234578309,01/19/2020
Abbey,384 Barking Road,Plaistow,London,E09000025,Newham,,E05000478,Canning Town South,,0.02084818726844917,51.52114741833772,540299.9619785665,182182.92343119875,01/19/2020
Army & Navy,36 New Barn Street,Plaistow,London,E09000025,Newham,,E05000478,Canning Town South,,0.02315628898020202,51.52151225444534,540458.9619352494,182227.92341884883,01/19/2020
Lord Stanley,15 St Mary's Road,Plaistow,London,E09000025,Newham,,E05000489,Plaistow North,,0.024706150182107395,51.53143155502195,540535.9619149384,183333.92311756918,01/19/2020
Queens,410 Green Street,Plaistow,London,E09000025,Newham,,E05000476,Boleyn,,0.035270106260131724,51.534243116174814,541259.961718088,183666.92302847706,01/19/2020
Manor Arms,150 East India Dock Road,Poplar,London,E09000030,Tower Hamlets,,E05009328,Poplar,,-0.01567855017587804,51.5108809709117,537796.9626594651,180971.92375787516,01/19/2020
Greenwich Pensioner,28 Bazeley Street,Poplar,London,E09000030,Tower Hamlets,,E05009328,Poplar,,-0.010566479457414431,51.50979610238635,538154.9625607843,180860.92378940288,01/19/2020
Hope & Anchor,14 Newby Place,Poplar,London,E09000030,Tower Hamlets,,E05009328,Poplar,,-0.01259759452114895,51.51047805425668,538011.9626001702,180932.92376923817,01/19/2020
Ship,290 Westferry Road,Isle of Dogs,Mudchute,E09000030,Tower Hamlets,,E05009324,Island Gardens,,-0.018600393648370003,51.48806131245216,537662.9626970636,178428.92445010733,01/19/2020
Great Eastern,1 Glenaffric Avenue,Isle of Dogs,Mudchute,E09000030,Tower Hamlets,,E05009324,Island Gardens,,-0.006385013088908385,51.488735556526464,538508.96246548,178526.9244225191,01/19/2020
Ferry House,26 Ferry Street,Isle of Dogs,Mudchute,E09000030,Tower Hamlets,,E05009324,Island Gardens,,-0.01253599274760918,51.486411901094975,538088.9625811387,178256.92449664697,01/19/2020
George,114 Glengall Grove,Isle of Dogs,Crossharbour,E09000030,Tower Hamlets,,E05009318,Blackwall & Cubitt Town,,-0.011943971739219187,51.495709485902424,538101.962575233,179291.92421452323,01/19/2020
Ledger Building,4 Hertsmere Road,Canary Wharf,London,E09000030,Tower Hamlets,,E05009323,Canary Wharf,,-0.02383270037295962,51.50761933319317,537240.9628112616,180593.92386071762,01/19/2020
Sipping Room,16 Hertsmere Road,Isle of Dogs,Canary Wharf,E09000030,Tower Hamlets,,E05009323,Canary Wharf,,-0.022612190118463518,51.50751781924165,537325.9627880834,180584.92386300105,01/19/2020
Browns,"Unit A Hertsmere Road, West India Quay",Isle of Dogs,Canary Wharf,E09000030,Tower Hamlets,,E05009323,Canary Wharf,,-0.022612190118463518,51.50751781924165,537325.9627880834,180584.92386300105,01/19/2020
Burger & Lobster,"Unit C, 2 Port East Building,",Isle of Dogs,Canary Wharf,E09000030,Tower Hamlets,,E05009323,Canary Wharf,,-0.022612190118463518,51.50751781924165,537325.9627880834,180584.92386300105,01/19/2020
Merchant,"25-27 Fishermans Walk, Building FC2",Isle of Dogs,Canary Wharf,E09000030,Tower Hamlets,,E05009323,Canary Wharf,,-0.021687528779707754,51.50591046460606,537394.9627682561,180407.92391111364,01/19/2020
Davy's,31-35 Fishermans Walk,Isle of Dogs,Canary Wharf,E09000030,Tower Hamlets,,E05009323,Canary Wharf,,-0.021687528779707754,51.50591046460606,537394.9627682561,180407.92391111364,01/19/2020
Limehouse,10 Cabot Square - Fishermans Walk,Isle of Dogs,Canary Wharf,E09000030,Tower Hamlets,,E05009323,Canary Wharf,,-0.021687528779707754,51.50591046460606,537394.9627682561,180407.92391111364,01/19/2020
Pagination,9 Cabot Square,Isle of Dogs,Canary Wharf,E09000030,Tower Hamlets,,E05009323,Canary Wharf,,-0.021675880763054343,51.5051818369126,537397.9627669582,180326.92393318738,01/19/2020
Henry Addington,22-28 Mackenzie Walk,Canary Wharf,London,E09000030,Tower Hamlets,,E05009323,Canary Wharf,,-0.022050673336500647,51.504513688473494,537373.9627730574,180251.92395366536,01/19/2020
Slug & Lettuce,"51-55 Mackenzie Walk, 30 South Colonnade",Isle of Dogs,Canary Wharf,E09000030,Tower Hamlets,,E05009323,Canary Wharf,,-0.023853687573075193,51.50480489435387,537247.9628075778,180280.92394595034,01/19/2020
Parlour,"Park Pavilion, 40 Canada Sqare",Isle of Dogs,Canary Wharf,E09000030,Tower Hamlets,,E05009323,Canary Wharf,,-0.019496145868443407,51.50493819138779,537549.9627253872,180303.9239392244,01/19/2020
Sports Bar & Grill,1 Crossrail Place,Isle of Dogs,Canary Wharf,E09000030,Tower Hamlets,,E05009323,Canary Wharf,,-0.018260388646663933,51.50618532231073,537631.9627039293,180444.92390061583,01/19/2020
All Bar One,42 McKenzie Walk,Isle of Dogs,Canary Wharf,E09000030,Tower Hamlets,,E05009323,Canary Wharf,,-0.020495585041637523,51.50415469655614,537482.9627431106,180214.92396359652,01/19/2020
Brodies (Bar & Kitchen),43 Fishermans Walk,Isle of Dogs,Canary Wharf,E09000030,Tower Hamlets,,E05009323,Canary Wharf,,-0.02008257000929821,51.50570350960537,537506.9627376235,180387.92391637992,01/19/2020
BrewDog Canary Wharf,"Unit 17, 2 Churchill Place",Canary Wharf,,E09000030,Tower Hamlets,,E05009323,Canary Wharf,,-0.014415527589499067,51.50513102451503,537901.9626296682,180334.9239312181,01/19/2020
Rocket by Balls Brothers,2 Churchill Place,Canary Wharf,,E09000030,Tower Hamlets,,E05009323,Canary Wharf,,-0.014415527589499067,51.50513102451503,537901.9626296682,180334.9239312181,01/19/2020
Festival Inn,71 Grundy Street,Poplar,London,E09000030,Tower Hamlets,,E05009325,Lansbury,,-0.015627297332487584,51.51239093305103,537795.9626592792,181139.92371225788,01/19/2020
Callaghanns,55 Chrisp Street,Poplar,London,E09000030,Tower Hamlets,,E05009325,Lansbury,,-0.014232948965624997,51.512969860724084,537890.9626329222,181206.92369431083,01/19/2020
George IV,7 Ida Street,Poplar,London,E09000030,Tower Hamlets,,E05009325,Lansbury,,-0.011536183994518685,51.51201585832635,538080.9625807663,181105.9237223367,01/19/2020
Crown,667 Commercial Road,Poplar,Limehouse,E09000030,Tower Hamlets,,E05009326,Limehouse,,-0.028706260139762,51.51155931781649,536890.9629066611,181022.92374518514,01/19/2020
Star Of The East,805a Commercial Road,Poplar,Limehouse,E09000030,Tower Hamlets,,E05009327,Mile End,,-0.029158264795849785,51.51243922251427,536856.9629157736,181119.92371902574,01/19/2020
Craft Beer Co.,576 Commercial Road,Limehouse,London,E09000030,Tower Hamlets,,E05009332,Shadwell,,-0.04017645268492629,51.5126058493627,536091.9631233013,181117.92371998593,01/19/2020
Queens Head,8 Flamborough Street,Poplar,Limehouse,E09000030,Tower Hamlets,,E05009329,St. Dunstan's,,-0.03883316438990504,51.513680515354224,536181.963098879,181239.92368714773,01/19/2020
Old Ship,17 Barnes Street,Poplar,Limehouse,E09000030,Tower Hamlets,,E05009329,St. Dunstan's,,-0.03984646118913092,51.51391327859761,536110.9631179939,181263.92368054442,01/19/2020
Prince Regent,81 Salmon Lane,Poplar,Limehouse,E09000030,Tower Hamlets,,E05009329,St. Dunstan's,,-0.03653286368055275,51.51421757227065,536339.9630562263,181303.92367010913,01/19/2020
Grapes,76 Narrow Street,Limehouse,London,E09000030,Tower Hamlets,,E05009326,Limehouse,,-0.03298674872198288,51.50854664206313,536602.9629852118,180679.9238386599,01/19/2020
Narrow,44 Narrow Street-Limehouse Basin,Limehouse,London,E09000030,Tower Hamlets,,E05009326,Limehouse,,-0.03298674872198288,51.50854664206313,536602.9629852118,180679.9238386599,01/19/2020
Tooke Arms,165 West Ferry Road,Isle of Dogs,Millwall,E09000030,Tower Hamlets,,E05009323,Canary Wharf,,-0.025525611347127775,51.498133344272276,537151.9628322216,179535.92414882255,01/19/2020
28West,28 Westferry Circus,Isle of Dogs,Millwall,E09000030,Tower Hamlets,,E05009323,Canary Wharf,,-0.028034672286802103,51.506089344168814,536953.9628884173,180415.92390969163,01/19/2020
Gun,27 Coldharbour,Isle of Dogs,Crossharbour,E09000030,Tower Hamlets,,E05009318,Blackwall & Cubitt Town,,-0.007530951922657475,51.50241521476432,538387.9624979133,180045.92400996207,01/19/2020
Pepper Saint Ontiod,21 Pepper Street,Crossharbour,London,E09000030,Tower Hamlets,,E05009323,Canary Wharf,,-0.017446314167940607,51.49639619472402,537717.9626791071,179357.92419684737,01/19/2020
Half Moon,212-223 Mile End Road,London,Stepney,E09000030,Tower Hamlets,,E05009317,Bethnal Green,,-0.045299154134781035,51.52221454647792,535707.9632275088,182176.9234324188,01/19/2020
Horn Of Plenty,36 Globe Road,London,Stepney,E09000030,Tower Hamlets,,E05009317,Bethnal Green,,-0.04641504917664464,51.522412980908086,535629.9632487209,182196.9234268681,01/19/2020
Bancroft Arms,410 Mile End Road,London,Mile End,E09000030,Tower Hamlets,,E05009329,St. Dunstan's,,-0.03999913302035558,51.522773608893985,536073.963128381,182248.92341344553,01/19/2020
White Hart,1-3 Mile End Road,Whitechapel,,E09000030,Tower Hamlets,,E05009317,Bethnal Green,,-0.054509012460255545,51.52056015387122,535073.9633985831,181975.92348663462,01/19/2020
Builders Arms,302 High Street,Stratford,London,E09000025,Newham,,E05000492,Stratford and New Town,,-0.0017565355210650395,51.53854039726035,538678.9624186712,184073.92291588226,01/19/2020
Railway Tavern,131 Angel Lane,Stratford,London,E09000025,Newham,,E05000492,Stratford and New Town,,0.00014531137600867316,51.54508162513324,538790.9623858883,184804.92271772318,01/19/2020
Bar One,7-9 Leytonstone Road,Stratford,London,E09000025,Newham,,E05000492,Stratford and New Town,,0.005502815063245131,51.54687855341455,539156.9622859196,185014.92265948298,01/19/2020
Eagle,157 Chobham Road,Stratford,London,E09000025,Newham,,E05000492,Stratford and New Town,,-0.00044853069108498063,51.54930033151278,538736.9623999102,185272.92258937785,01/19/2020
Sportsman,78-102 The Broadway,Stratford,London,E09000025,Newham,,E05000492,Stratford and New Town,,0.001928528398192795,51.54167892636549,538924.9623501867,184429.92281999288,01/19/2020
Goldengrove,146-148 The Grove,Stratford,London,E09000025,Newham,,E05000492,Stratford and New Town,,0.004052155931044828,51.54406167412191,539064.9623115195,184698.9227462344,01/19/2020
012 Bar & Grill,108-110 The Grove,Stratford,London,E09000025,Newham,,E05000492,Stratford and New Town,,0.004052155931044828,51.54406167412191,539064.9623115195,184698.9227462344,01/19/2020
Cart & Horses,1 Maryland Point,Stratford,London,E09000025,Newham,,E05000492,Stratford and New Town,,0.004317681394295475,51.54583768629344,539077.9623076378,184896.9226919504,01/19/2020
Leyton Star,116 High Road Leyton,Stratford,London,E09000031,Waltham Forest,,E05000591,Cathall,,-0.0051104206624398955,51.554505523648395,538397.962494717,185842.9224348857,01/19/2020
Carpenters Arms,17 Carpenters Road,Stratford,London,E09000025,Newham,,E05000492,Stratford and New Town,,-0.005472618544012891,51.537650392690985,538423.9624885668,183967.9229447937,01/19/2020
Britannia,2 Plaistow Grove,Stratford,London,E09000025,Newham,,E05000494,West Ham,,0.012743302692454075,51.53413768346107,539697.962143623,183611.92304038018,01/19/2020
City View Hotel,11 Church Street,Stratford,London,E09000025,Newham,,E05000494,West Ham,,0.0075862223806803354,51.53621351597039,539333.9622416641,183832.92298035737,01/19/2020
King Edward VII,47 The Broadway,Stratford,London,E09000025,Newham,,E05000492,Stratford and New Town,,0.0026311019390842898,51.54092952378111,538975.9623366978,184347.92284192343,01/19/2020
Olde Black Bull,13 Broadway,Stratford,London,E09000025,Newham,,E05000492,Stratford and New Town,,0.0026311019390842898,51.54092952378111,538975.9623366978,184347.92284192343,01/19/2020
Refreshment Room,27 The Broadway,Stratford,London,E09000025,Newham,,E05000492,Stratford and New Town,,0.0026311019390842898,51.54092952378111,538975.9623366978,184347.92284192343,01/19/2020
Secret Weapon,25 West Ham Lane,Stratford,London,E09000025,Newham,,E05000492,Stratford and New Town,,0.004139811520281798,51.53949188364011,539084.9623077764,184190.9228839784,01/19/2020
Queens Head,5 West Ham Lane,Stratford,London,E09000025,Newham,,E05000492,Stratford and New Town,,0.004139811520281798,51.53949188364011,539084.9623077764,184190.9228839784,01/19/2020
Greyhound,136 West Ham Lane,Stratford,London,E09000025,Newham,,E05000494,West Ham,,0.005640320711662112,51.53754177867764,539194.9622788245,183976.92294153245,01/19/2020
Abbey Tap,14 The Broadway,Stratford,London,E09000025,Newham,,E05000492,Stratford and New Town,,0.0003474505001100142,51.54048290972626,538818.9623796055,184293.92285672628,01/19/2020
Pride of Spitalfields,3 Heneage Street,Spitalfields,,E09000030,Tower Hamlets,,E05009333,Spitalfields & Banglatown,,-0.07037107876607733,51.51905981906137,533977.9636954174,181779.9235420074,01/19/2020
Carpenters Arms,135 Cambridge Heath Road,London,Whitechapel,E09000030,Tower Hamlets,,E05009331,St. Peter's,,-0.05526909564219317,51.523018751393145,535013.9634160703,182247.923412828,01/19/2020
Fox @ Excel,"Warehouse 'K', Mace Gateway",Royal Docks,Canning Town,E09000025,Newham,,E05000478,Canning Town South,,0.025005524606743632,51.508935097237945,540625.9618881127,180832.9237970076,01/19/2020
Streeties,15 Shirley Street,Royal Docks,Canning Town,E09000025,Newham,,E05000478,Canning Town South,,0.011819913757189462,51.512867361974266,539698.9621416773,181244.9236866086,01/19/2020
Fox @ Connaught,Lynx Way,Royal Docks,Canning Town,E09000025,Newham,,E05000479,Custom House,,0.039453794395847536,51.50880154066871,541628.9616162537,180845.9237929574,01/19/2020
Beckton Arms,1 Beckton Road,Royal Docks,Canning Town,E09000025,Newham,,E05000477,Canning Town North,,0.014164042785014416,51.51732365243943,539847.9621016182,181744.92355131748,01/19/2020
Husk Brewing Taproom,"58A Railway Arches, North Woolwich Road",Royal Docks,,E09000025,Newham,,E05000491,Royal Docks,,0.018622318521150635,51.504395896793454,540196.962005356,180315.92393688124,01/19/2020
Henley Arms,268 Albert Road,Royal Docks,London,E09000025,Newham,,E05000491,Royal Docks,,0.05833163243227521,51.500800793856435,542963.9612508602,179992.9240233776,01/19/2020
Royal Standard Hotel,116 Albert Road,Royal Docks,London,E09000025,Newham,,E05000491,Royal Docks,,0.06357622056139292,51.50016004509837,543329.9611512802,179931.92404006567,01/19/2020
Brick Lane Brews,"Gate 2B Airside, London City Airport,Westside Pier",Custom House,,E09000025,Newham,,E05000491,Royal Docks,,0.046436129718553334,51.50414751038709,542127.9614805055,180341.9239293026,01/19/2020
Reach Bar,"Gallions Hotel, Albert Basin Way",Royal Docks,,E09000025,Newham,,E05000475,Beckton,,0.0736977805131429,51.50633950200974,544012.9609655361,180638.9238488619,01/19/2020
Custom House (Pub & Kitchen),272-283 Victoria Dock Road,Royal Docks,Custom House,E09000025,Newham,,E05000479,Custom House,,0.02804459350229811,51.51019552317092,540832.9618315352,180978.92375736346,01/19/2020
Princess Alexandra,219 Barking Road,London,,E09000025,Newham,,E05000477,Canning Town North,,0.01538832474133583,51.51926305184409,539926.9620802171,181962.9234916221,01/19/2020
Durham Arms,24 Stephenson Street,London,,E09000025,Newham,,E05000477,Canning Town North,,0.0037307300720888837,51.51901332253555,539118.9622971904,181912.923503901,01/19/2020
Gun,54 Brushfield Street,Shoreditch,,E09000030,Tower Hamlets,,E05009333,Spitalfields & Banglatown,,-0.07664643180798,51.518938167653324,533542.9638140238,181754.9235488646,01/19/2020
English Restaurant,50-52 Brushfield St,London,Spitalfields,E09000030,Tower Hamlets,,E05009333,Spitalfields & Banglatown,,-0.07664643180798,51.518938167653324,533542.9638140238,181754.9235488646,01/19/2020
Water Poet,11 Folgate Street,London,Spitalfields,E09000030,Tower Hamlets,,E05009333,Spitalfields & Banglatown,,-0.07732428159536692,51.52098163977492,533489.9638284626,181980.92348687386,01/19/2020
Grocer,Spitalfields Market,London,Spitalfields,E09000030,Tower Hamlets,,E05009333,Spitalfields & Banglatown,,-0.07633562213735268,51.51981434986587,533561.9638088794,181852.92352199112,01/19/2020
Galvin Hop,35 Spital Square,Spitalfields,,E09000030,Tower Hamlets,,E05009333,Spitalfields & Banglatown,,-0.078308316142703,51.52020642408736,533423.9638464062,181892.92351100052,01/19/2020
Boxbar,2-10 Bethnal Green Road,Shoreditch,,E09000012,Hackney,,E05009377,Hoxton East & Shoreditch,,-0.07631181654144742,51.523455998749064,533552.963811496,182257.92341093876,01/19/2020
Juno,134-135 Shoreditch High Street,London,Shoreditch,E09000012,Hackney,,E05009377,Hoxton East & Shoreditch,,-0.07824842772307809,51.526419380338574,533409.9638503182,182583.92332160677,01/19/2020
Barrio East,141-143 Shoreditch High Street,London,Shoreditch,E09000012,Hackney,,E05009377,Hoxton East & Shoreditch,,-0.07824842772307809,51.526419380338574,533409.9638503182,182583.92332160677,01/19/2020
Corner Shop,123 Shoreditch High Street,London,Shoreditch,E09000012,Hackney,,E05009377,Hoxton East & Shoreditch,,-0.07824842772307809,51.526419380338574,533409.9638503182,182583.92332160677,01/19/2020
Dragon,138-139 Shoreditch High Street,London,Shoreditch,E09000012,Hackney,,E05009377,Hoxton East & Shoreditch,,-0.07824842772307809,51.526419380338574,533409.9638503182,182583.92332160677,01/19/2020
Shoreditch,145 Shoreditch High Street,London,Shoreditch,E09000012,Hackney,,E05009377,Hoxton East & Shoreditch,,-0.07824842772307809,51.526419380338574,533409.9638503182,182583.92332160677,01/19/2020
Dirty Bones,1 Club Row,London,Spitalfields,E09000030,Tower Hamlets,,E05009335,Weavers,,-0.0742768010818627,51.524195946095894,533691.9637741705,182343.92338746233,01/19/2020
BrewDog Shoreditch,51-55 Bethnal Green Road,London,Spitalfields,E09000030,Tower Hamlets,,E05009335,Weavers,,-0.07379950804436078,51.524233065198835,533724.9637653065,182348.92338611634,01/19/2020
Culpeper,40 Commercial Street,London,Spitalfields,E09000030,Tower Hamlets,,E05009333,Spitalfields & Banglatown,,-0.07227376464440816,51.51633037595001,533853.9637287203,181472.9236254387,01/19/2020
Ten Bells,84 Commercial Street,London,Spitalfields,E09000030,Tower Hamlets,,E05009333,Spitalfields & Banglatown,,-0.07365677868690752,51.51907790664873,533749.9637575878,181775.92354310537,01/19/2020
Golden Heart,110 Commercial Street,London,Spitalfields,E09000030,Tower Hamlets,,E05009333,Spitalfields & Banglatown,,-0.07418365331930118,51.519913894439235,533710.9637683503,181867.9235178961,01/19/2020
Commercial Tavern,142 Commercial Street,Spitalfields,,E09000030,Tower Hamlets,,E05009333,Spitalfields & Banglatown,,-0.07600283087731255,51.52189519088054,533578.9638043831,182084.9234583861,01/19/2020
Momento Lounge Bar,23-24 Shoreditch High Street,London,Shoreditch,E09000012,Hackney,,E05009377,Hoxton East & Shoreditch,,-0.0776928221694214,51.52249845778848,533459.9638365654,182148.92344078195,01/19/2020
Goose Island Brewpub,222 Shoreditch High Street,London,Shoreditch,E09000012,Hackney,,E05009377,Hoxton East & Shoreditch,,-0.07822847304432072,51.522444294545345,533422.9638465617,182141.92344268336,01/19/2020
Crown & Shuttle,226 Shoreditch High Street,Spitalfields,,E09000012,Hackney,,E05009377,Hoxton East & Shoreditch,,-0.07822847304432072,51.522444294545345,533422.9638465617,182141.92344268336,01/19/2020
Montys Bar & Lounge,149 Brick Lane,London,Spitalfields,E09000030,Tower Hamlets,,E05009335,Weavers,,-0.07169966033765805,51.524117596792976,533870.9637260276,182339.92338868807,01/19/2020
Goose,264 Hoe Street,Walthamstow,London,E09000031,Waltham Forest,,E05000599,High Street,,-0.0193315964476366,51.583783514738805,537323.9627863658,189071.9215569985,01/19/2020
Flowerpot,128 Wood Street,Walthamstow,Upper Walthamstow,E09000031,Waltham Forest,,E05000609,Wood Street,,-0.004461516762969924,51.58812652316633,538340.9625108772,189582.92141754407,01/19/2020
Duke's Head,112 Wood Street,Walthamstow,Upper Walthamstow,E09000031,Waltham Forest,,E05000609,Wood Street,,-0.004461516762969924,51.58812652316633,538340.9625108772,189582.92141754407,01/19/2020
Empire Lounge,20 Woodford New Road,Walthamstow,Upper Walthamstow,E09000031,Waltham Forest,,E05000609,Wood Street,,0.009289091079526524,51.59321518006346,539277.9622561448,190174.9212567662,01/19/2020
William Morris,807 Forest Road,Walthamstow,London,E09000031,Waltham Forest,,E05000592,Chapel End,,-0.008084099996650496,51.591119597295155,538080.9625815616,189908.9213292721,01/19/2020
Bell,617 Forest Road,Walthamstow,London,E09000031,Waltham Forest,,E05000592,Chapel End,,-0.016097079771913065,51.59011338511086,537528.9627292976,189781.92136400816,01/19/2020
"Mirth, Marvel & Maud",186 Hoe St,Walthamstow,,E09000031,Waltham Forest,,E05000599,High Street,,-0.020397399894970754,51.58649918190682,537241.962808076,189371.92147576105,01/19/2020
Victoria,186 Hoe Street,Walthamstow,London,E09000031,Waltham Forest,,E05000599,High Street,,-0.020397399894970754,51.58649918190682,537241.962808076,189371.92147576105,01/19/2020
Olde Rose & Crown,53-55 Hoe Street,Walthamstow,London,E09000031,Waltham Forest,,E05000601,Hoe Street,,-0.020333056992825827,51.58698368000081,537244.9628071494,189425.921461083,01/19/2020
Dog & Duck,222 Chingford Road,Walthamstow,Highham Hill,E09000031,Waltham Forest,,E05000592,Chapel End,,-0.015043146622065767,51.598404425685004,537576.9627192679,190705.9211138325,01/19/2020
Wild Card Brewery Taproom,"Unit 2, Lockwood Way",Walthamstow,Walthamstow,E09000031,Waltham Forest,,E05000600,Higham Hill,,-0.04221985751575824,51.59535389375479,535703.9632278925,190315.92121985852,01/19/2020
Warrant Officer,318 Higham Hill Road,Walthamstow,Highham Hill,E09000031,Waltham Forest,,E05000600,Higham Hill,,-0.034912768039469716,51.596382775651826,536206.9630920659,190443.9211862961,01/19/2020
Prince Of Wales,58 St Andrews Road,Walthamstow,Highham Hill,E09000031,Waltham Forest,,E05000600,Higham Hill,,-0.03683897554147734,51.59323176225297,536082.9631263362,190089.92128228518,01/19/2020
Lord Palmerston,252-254 Forest Road,Walthamstow,Highham Hill,E09000031,Waltham Forest,,E05000599,High Street,,-0.0318938525377771,51.588383058702135,536439.963027839,189559.92142677668,01/19/2020
Chequers,145 High Street,Walthamstow,London,E09000031,Waltham Forest,,E05000599,High Street,,-0.025551379077380452,51.58382536375485,536892.9629034083,189064.9215603461,01/19/2020
Coppermill,205 Coppermill Lane,Walthamstow,London,E09000031,Waltham Forest,,E05000599,High Street,,-0.04050724745619476,51.5801102380367,535867.9631834759,188623.92168118316,01/19/2020
Goergio's Sports Bar & Grill,30 St James's Street,Walthamstow,London,E09000031,Waltham Forest,,E05000599,High Street,,-0.03341175226611768,51.580971811086705,536356.9630495755,188732.9216525532,01/19/2020
Wild Card Brewery Barrel Room,"Unit 7, Ravenswood Industrial Estate, Shernhall Street",Walthamstow,,E09000031,Waltham Forest,,E05000609,Wood Street,,-0.0081112315949244,51.58389023786152,538100.9625746713,189104.92154732568,01/19/2020
Pillars Brewery Tap,"Unit 2, Ravenswood Industrial Estate, Shernhall St.",London,,E09000031,Waltham Forest,,E05000609,Wood Street,,-0.0081112315949244,51.58389023786152,538100.9625746713,189104.92154732568,01/19/2020
Lord Raglan,199 Shernhall Street,Walthamstow,London,E09000031,Waltham Forest,,E05000609,Wood Street,,-0.00307931637534162,51.58178137813529,538455.9624787371,188879.92160905513,01/19/2020
Castle,15 Grosvenor Rise East,Walthamstow,London,E09000031,Waltham Forest,,E05000601,Hoe Street,,-0.010977295706450872,51.580728594175916,537911.9626266179,188747.92164572974,01/19/2020
Nag's Head,9 Orford Road,Walthamstow,London,E09000031,Waltham Forest,,E05000601,Hoe Street,,-0.01075481043159168,51.58351246670426,537918.9626243168,189057.92156033905,01/19/2020
Queens Arms,42 Orford Road,Walthamstow,London,E09000031,Waltham Forest,,E05000601,Hoe Street,,-0.013077238826025664,51.582553679672856,537760.9626674259,188946.92159100086,01/19/2020
Village,31 Orford Road,Walthamstow,London,E09000031,Waltham Forest,,E05000601,Hoe Street,,-0.011712417199811663,51.582737374110465,537854.962641841,188969.92158461513,01/19/2020
City Bar & Kitchen,9 Stoney Street c/o White Kennet Lane,London,Aldgate East,E09000001,City and County of the City of London,,E05009289,Aldgate,,-0.07758327656468073,51.51517660674168,533488.963828666,181334.92366254737,01/19/2020
Bell,50 Middlesex Street,London,Aldgate East,E09000030,Tower Hamlets,,E05009333,Spitalfields & Banglatown,,-0.07546640281270592,51.51581631269078,533633.963788978,181409.92364240118,01/19/2020
Tracks&records,94-98 Middlesex Street,London,Aldgate East,E09000030,Tower Hamlets,,E05009333,Spitalfields & Banglatown,,-0.07661794126873532,51.51687837259046,533550.9638117729,181525.92361143336,01/19/2020
Simmons,21 Widegate Street,London,Liverpool Street,E09000001,City and County of the City of London,,E05009292,Bishopsgate,,-0.07820848785729362,51.51812747489479,533436.9638429786,181661.92357438238,01/19/2020
Kings Stores,14 Widegate Street,Spitalfields,,E09000001,City and County of the City of London,,E05009292,Bishopsgate,,-0.07820848785729362,51.51812747489479,533436.9638429786,181661.92357438238,01/19/2020
Astronomer,125-129 Middlesex Street,London,Aldgate East,E09000001,City and County of the City of London,,E05009292,Bishopsgate,,-0.07877819190293753,51.51794796997178,533397.9638536556,181640.92358014995,01/19/2020
Grapeshots,2-3 Artillery Passage,London,Aldgate East,E09000030,Tower Hamlets,,E05009333,Spitalfields & Banglatown,,-0.07738859275144158,51.518087047813616,533493.9638273974,181658.92357519682,01/19/2020
Williams Ale & Cider House,22-24 Artillery Lane,Spitalfields,,E09000001,City and County of the City of London,,E05009292,Bishopsgate,,-0.078285829159438,51.51834456791368,533430.9638446061,181685.92356779758,01/19/2020
Bar Locks,21 White Church Lane,London,Aldgate East,E09000030,Tower Hamlets,,E05009336,Whitechapel,,-0.06924951680602372,51.515588148403936,534065.9636706198,181395.92364587105,01/19/2020
White Hart,89 Whitechapel High Street,London,Aldgate East,E09000030,Tower Hamlets,,E05009333,Spitalfields & Banglatown,,-0.07114542042254733,51.51574526840424,533933.9637067843,181409.92364221788,01/19/2020
Lizard Lounge,186-188 George Lane,South Woodford,London,E09000026,Redbridge,,E05011252,South Woodford,,0.02460591947301663,51.59383312439348,540336.9619676445,190272.92123032216,01/19/2020
Slug & Lettuce,184 George Lane,South Woodford,London,E09000026,Redbridge,,E05011252,South Woodford,,0.02460591947301663,51.59383312439348,540336.9619676445,190272.92123032216,01/19/2020
Railway Bell,87 George Lane,South Woodford,London,E09000026,Redbridge,,E05011252,South Woodford,,0.02822555023327929,51.591792247715134,540593.9618981809,190052.9212899215,01/19/2020
George,70-74 High Road,South Woodford,London,E09000026,Redbridge,,E05011252,South Woodford,,0.022709678015455,51.59339820806025,540206.9620028769,190220.92124429822,01/19/2020
Duke Of Somerset,15 Little Somerset Street,London,Goodmans,E09000001,City and County of the City of London,,E05009308,Portsoken,,-0.07445100147820898,51.513920156798896,533709.9637680764,181200.9236982084,01/19/2020
Goodman's Field,87-91 Mansell Street,London,Goodmans,E09000030,Tower Hamlets,,E05009336,Whitechapel,,-0.07288269525307033,51.51249151376533,533822.9637370855,181044.92373979033,01/19/2020
Princess Of Prussia,15 Prescot Street,London,Goodmans,E09000030,Tower Hamlets,,E05009336,Whitechapel,,-0.07050225536186953,51.51152609363184,533990.9636910785,180941.92376712657,01/19/2020
White Swan,21 Alie Street,London,Goodmans,E09000030,Tower Hamlets,,E05009336,Whitechapel,,-0.07122103450716058,51.513615241989726,533934.9637064581,181172.9237055009,01/19/2020
Black Horse,40 Leman Street,London,Goodmans,E09000030,Tower Hamlets,,E05009336,Whitechapel,,-0.07016972242476152,51.512914487540115,534009.9636859084,181096.92372572504,01/19/2020
Oliver Conquest,70 Leman Street,London,Goodmans,E09000030,Tower Hamlets,,E05009336,Whitechapel,,-0.07016972242476152,51.512914487540115,534009.9636859084,181096.92372572504,01/19/2020
Brown Bear,139 Leman Street,London,Goodmans,E09000030,Tower Hamlets,,E05009336,Whitechapel,,-0.06934883296890973,51.512559243029344,534067.9636700244,181058.92373581277,01/19/2020
Running Horse,"7 Piazza Walk, Leman St, Goodmans Field",London,Aldgate,E09000030,Tower Hamlets,,E05009336,Whitechapel,,-0.06985013069767118,51.513655618564755,534029.9636804461,181179.9237035499,01/19/2020
Wilton's Music Hall Mahogany Bar,Graces Alley,Shadwell,Tower Hamlets,E09000030,Tower Hamlets,,E05009336,Whitechapel,,-0.06693794649190628,51.51061305309452,534240.9636230415,180846.92379227764,01/19/2020
Sir Sydney Smith,22 Dock Street,London,,E09000030,Tower Hamlets,,E05009336,Whitechapel,,-0.06846651381821968,51.50990983934172,534136.9636511077,180765.92381393106,01/19/2020
Simmons,61 Royal Mint Street,London,Goodmans,E09000030,Tower Hamlets,,E05009336,Whitechapel,,-0.07049251629114818,51.51039285185256,533994.9636899583,180815.92380075948,01/19/2020
Artful Dodger,47 Royal Mint Street,London,Goodmans,E09000030,Tower Hamlets,,E05009336,Whitechapel,,-0.07049251629114818,51.51039285185256,533994.9636899583,180815.92380075948,01/19/2020
Leman Street Tavern,31 Leman Street,London,Goodmans,E09000030,Tower Hamlets,,E05009336,Whitechapel,,-0.07020829507128966,51.51370648093229,534004.9636872933,181184.92370223836,01/19/2020
Bar & Block,66 Alie Street,Aldgate,,E09000030,Tower Hamlets,,E05009336,Whitechapel,,-0.06975079226072559,51.51395973429755,534035.9636788093,181213.9236944698,01/19/2020
Slug & Lettuce,"Unit 1 Tower Bridge House, St Katherine's Dock",London,Wapping,E09000030,Tower Hamlets,,E05009330,St. Katharine's & Wapping,,-0.0727772391950476,51.50679739378998,533846.9637310274,180411.92391043954,01/19/2020
Dickens Inn,"Marble Quay, St Katherine's Way",London,Wapping,E09000030,Tower Hamlets,,E05009330,St. Katharine's & Wapping,,-0.07024166354650682,51.506440922423835,534023.963682709,180376.92392006208,01/19/2020
Moretown Belle,"5 Thomas Moore Sq, Nesham Street",London,Wapping,E09000030,Tower Hamlets,,E05009330,St. Katharine's & Wapping,,-0.06722238030966733,51.50729943467724,534230.9636260981,180477.92389230354,01/19/2020
Captain Kidd,108 Wapping High Street,London,Wapping,E09000030,Tower Hamlets,,E05009330,St. Katharine's & Wapping,,-0.06009778828836929,51.50302713664555,534737.9634891492,180015.9240200834,01/19/2020
Turk's Head,1 Green Bank,London,Wapping,E09000030,Tower Hamlets,,E05009330,St. Katharine's & Wapping,,-0.06127133664473298,51.50423358522294,534652.9635122683,180147.92398360936,01/19/2020
Town Of Ramsgate,62 Wapping High Street,London,Wapping,E09000030,Tower Hamlets,,E05009330,St. Katharine's & Wapping,,-0.062057495098949915,51.5033652980008,534600.9635264224,180049.92401059088,01/19/2020
Turner's Old Star,14 Watts Street,London,Wapping,E09000030,Tower Hamlets,,E05009330,St. Katharine's & Wapping,,-0.059364524679204826,51.505362096112236,534781.9634773144,180276.92394813575,01/19/2020
White Swan & Cuckoo,97 Wapping Lane,London,Wapping,E09000030,Tower Hamlets,,E05009330,St. Katharine's & Wapping,,-0.05787943237696452,51.5053824678851,534884.963449417,180281.92394683755,01/19/2020
Prospect of Whitby,57 Wapping Wall,London,Shadwell,E09000030,Tower Hamlets,,E05009330,St. Katharine's & Wapping,,-0.05101886878276715,51.507103130275496,535355.963322472,180485.92389090202,01/19/2020
Neighbourhood,5254 Celebration Avenue,Stratford,East Village,E09000025,Newham,,E05000492,Stratford and New Town,,-0.00791350746770264,51.54746692286666,538224.9625406389,185054.92264897848,01/19/2020
Tap East,"Montfichet Road, 7 International Square",Westfield Stratford City,London,E09000025,Newham,,E05000492,Stratford and New Town,,-0.008867332874752783,51.544119845673414,538168.9625564158,184680.92275145178,01/19/2020
Bat & Ball,"Unit 1110/1111, Westfield Centre",Stratford City,London,E09000025,Newham,,E05000492,Stratford and New Town,,-0.0063195504829034145,51.544337371877354,538344.9625081032,184709.92274368758,01/19/2020
Bumpkin,105-106 The Street,Stratford,,E09000025,Newham,,E05000492,Stratford and New Town,,-0.00754654063465414,51.54299132380806,538263.9625304965,184557.92278527707,01/19/2020
Cow,4 Chestnut Plaza,Westfield Stratford City,London,E09000025,Newham,,E05000492,Stratford and New Town,,-0.007307164869087194,51.5425286313862,538281.9625256185,184506.92279928178,01/19/2020
Four Quarters East,"Unit 8 Canalside, East Bay Lane, Here East,Queen Elizabeth Park",Stratford,Stratford,E09000012,Hackney,,E05009374,Hackney Wick,,-0.022262160047026903,51.54752074958121,537229.9628120977,185033.92265491118,01/19/2020
Marquis Of Cornwallis,304 Bethnal Green Road,Bethnal Green,London,E09000030,Tower Hamlets,,E05009335,Weavers,,-0.06470356803618361,51.52625940810895,534349.9635973561,182590.9233199816,01/19/2020
Old George,379 Bethnal Green Road,Bethnal Green,London,E09000030,Tower Hamlets,,E05009331,St. Peter's,,-0.0595039948360324,51.52716258887851,534707.9635003144,182700.9232897446,01/19/2020
Sun Tavern,441 Bethnal Green Road,Bethnal Green,London,E09000030,Tower Hamlets,,E05009331,St. Peter's,,-0.0595039948360324,51.52716258887851,534707.9635003144,182700.9232897446,01/19/2020
Shakespeare,460 Bethnal Green Road,Bethnal Green,London,E09000030,Tower Hamlets,,E05009331,St. Peter's,,-0.05724558149162148,51.52704423321393,534864.9634577425,182691.92329214863,01/19/2020
Bethnal Green Tavern,456 Bethnal Green Road,Bethnal Green,London,E09000030,Tower Hamlets,,E05009331,St. Peter's,,-0.05724558149162148,51.52704423321393,534864.9634577425,182691.92329214863,01/19/2020
Salmon & Ball,502 Bethnal Green Road,Bethnal Green,London,E09000030,Tower Hamlets,,E05009331,St. Peter's,,-0.05724558149162148,51.52704423321393,534864.9634577425,182691.92329214863,01/19/2020
OLd Street Brewery Taproom,"Arch 11, Gales Gardens",Bethnal Green,,E09000030,Tower Hamlets,,E05009331,St. Peter's,,-0.05666155753468138,51.52653996051921,534906.963446341,182636.92330712092,01/19/2020
Backyard Bar & Kitchen,231 Cambridge Heath Rd,Bethnal Green,Cambridge Heath,E09000030,Tower Hamlets,,E05009331,St. Peter's,,-0.055743987303872984,51.52675854409312,534969.9634292651,182662.92330000811,01/19/2020
Camel,277 Globe Road,Bethnal Green,London,E09000030,Tower Hamlets,,E05009317,Bethnal Green,,-0.051294137931200016,51.52833026185165,535273.9633468323,182845.92325019155,01/19/2020
Florist Arms,255 Globe Road,Bethnal Green,London,E09000030,Tower Hamlets,,E05009317,Bethnal Green,,-0.051294137931200016,51.52833026185165,535273.9633468323,182845.92325019155,01/19/2020
Casa Blue,120 Bethnal Green Road,Bethnal Green,Shoreditch,E09000030,Tower Hamlets,,E05009335,Weavers,,-0.07116011921883897,51.52494503748163,533905.9637168827,182432.92336325668,01/19/2020
Carpenter's Arms,73 Cheshire Street,Bethnal Green,London,E09000030,Tower Hamlets,,E05009335,Weavers,,-0.06662689341256456,51.52407897628514,534222.9636311019,182344.923387365,01/19/2020
Kings Arms,11a Buckfast Street,Bethnal Green,London,E09000030,Tower Hamlets,,E05009335,Weavers,,-0.06625511274881656,51.52536778654679,534244.963625741,182488.92334799474,01/19/2020
Star of Bethnal Green,359 Bethnal Green Road,Bethnal Green,London,E09000030,Tower Hamlets,,E05009331,St. Peter's,,-0.062484769226709834,51.526906170160544,534501.9635561599,182666.92329910526,01/19/2020
Workers Arms,"Bethnal Green Working Men's Club, 42-44 Pollard Row",Bethnal Green,,E09000030,Tower Hamlets,,E05009331,St. Peter's,,-0.06332789676436504,51.527081973658895,534442.9635721617,182684.92329419946,01/19/2020
Well & Bucket,143 Bethnal Green Road,Bethnal Green,Shoreditch,E09000030,Tower Hamlets,,E05009335,Weavers,,-0.07105544343561966,51.52537496355504,533911.9637154151,182480.92335012322,01/19/2020
Redchurch,107 Redchurch Street,Bethnal Green,Shoreditch,E09000030,Tower Hamlets,,E05009335,Weavers,,-0.07243241763021606,51.52485805980573,533817.963740469,182420.92336646817,01/19/2020
Owl & Pussycat,34 Redchurch Street,Bethnal Green,Shoreditch,E09000030,Tower Hamlets,,E05009335,Weavers,,-0.07447431203957726,51.52429811119776,533677.9637779504,182354.9233844389,01/19/2020
Mikkeller Bar,2 Hackney Road,Bethnal Green,Shoreditch,E09000030,Tower Hamlets,,E05009335,Weavers,,-0.07669215198454163,51.52742799409023,533514.9638225142,182698.92329029978,01/19/2020
Birdcage,80 Columbia Road,Bethnal Green,Shoreditch,E09000030,Tower Hamlets,,E05009335,Weavers,,-0.07065096616224018,51.5284617342072,533930.963710754,182824.92325586668,01/19/2020
Royal Oak,73 Columbia Road,Bethnal Green,Shoreditch,E09000030,Tower Hamlets,,E05009335,Weavers,,-0.06918660403499476,51.52933686164213,534029.9636841214,182924.923228412,01/19/2020
Nelsons Head,32 Horatio Street,Bethnal Green,Shoreditch,E09000030,Tower Hamlets,,E05009335,Weavers,,-0.06985749455262988,51.530858657399484,533978.963698034,183092.92318235623,01/19/2020
Marksman,254 Hackney Road,Bethnal Green,Shoreditch,E09000030,Tower Hamlets,,E05009335,Weavers,,-0.06869952550742464,51.53096546738565,534058.96367636,183106.92317843536,01/19/2020
Spread Eagle,3 Kingsland Road,Bethnal Green,Haggerston,E09000012,Hackney,,E05009377,Hoxton East & Shoreditch,,-0.07817764342635845,51.52844155359336,533408.963851465,182808.92326030927,01/19/2020
Basing House,25 Kingsland Road,Bethnal Green,Haggerston,E09000012,Hackney,,E05009377,Hoxton East & Shoreditch,,-0.07817764342635845,51.52844155359336,533408.963851465,182808.92326030927,01/19/2020
Glory,281 Kingsland Road,Bethnal Green,Haggerston,E09000012,Hackney,,E05009377,Hoxton East & Shoreditch,,-0.07710150763852501,51.53584276111115,533461.9638383576,183633.92303563934,01/19/2020
Old Shoreditch Station,1 Kingsland Road,Bethnal Green,Shoreditch,E09000012,Hackney,,E05009377,Hoxton East & Shoreditch,,-0.07780340003932236,51.52774298479759,533436.9638436269,182731.92328129016,01/19/2020
Catch,22 Kingsland Road,Bethnal Green,Haggerston,E09000012,Hackney,,E05009377,Hoxton East & Shoreditch,,-0.07780340003932236,51.52774298479759,533436.9638436269,182731.92328129016,01/19/2020
Troyganic,132 Kingsland Road,Bethnal Green,Haggerston,E09000012,Hackney,,E05009375,Haggerston,,-0.07714642146205056,51.529647625412295,533476.9638336031,182944.9232232186,01/19/2020
Brewhouse & Kitchen,397-400 Geffrye Street,Bethnal Green,Haggerston,E09000012,Hackney,,E05009375,Haggerston,,-0.07536173946583032,51.532307095967354,533592.9638030867,183243.9231415026,01/19/2020
Virgin Queen,94 Goldsmiths Row,Bethnal Green,Haggerston,E09000012,Hackney,,E05009375,Haggerston,,-0.06429456509387688,51.53351858833729,534356.9635956354,183398.92309866002,01/19/2020
Sebright Arms,31-35 Coate Street,Bethnal Green,Cambridge Heath,E09000030,Tower Hamlets,,E05009331,St. Peter's,,-0.06297277937457846,51.53204895479626,534452.9635695746,183237.92314286594,01/19/2020
Perseverance,112 Pritchards Road,Bethnal Green,Cambridge Heath,E09000030,Tower Hamlets,,E05009331,St. Peter's,,-0.06236283379702464,51.53418807772584,534488.9635596893,183476.92307769746,01/19/2020
Hare,505 Cambridge Heath Road,Bethnal Green,Cambridge Heath,E09000030,Tower Hamlets,,E05009331,St. Peter's,,-0.057535721051593144,51.5334337210004,534825.9634684983,183401.9230985787,01/19/2020
Victory,27 Vyner Street,Bethnal Green,Cambridge Heath,E09000030,Tower Hamlets,,E05009331,St. Peter's,,-0.054759988437926774,51.53461965551646,535014.9634169801,183538.92306184553,01/19/2020
Bistrotheque,2327 Wadeson Street,Bethnal Green,Cambridge Heath,E09000030,Tower Hamlets,,E05009331,St. Peter's,,-0.05641385669275433,51.534044595416056,534901.9634478267,183471.9230797001,01/19/2020
Queen Adelaide,481 Hackney Road,Bethnal Green,Cambridge Heath,E09000030,Tower Hamlets,,E05009331,St. Peter's,,-0.058656159599563926,51.532517069049774,534750.9634888028,183297.92312683532,01/19/2020
Resident,"Arch 252, Paradise Row",Bethnal Green,,E09000030,Tower Hamlets,,E05009331,St. Peter's,,-0.05606877219648688,51.527932959038175,534943.9634363491,182792.92326461006,01/19/2020
Mother Kelly's,251 Paradise Row,Bethnal Green,,E09000030,Tower Hamlets,,E05009331,St. Peter's,,-0.05606877219648688,51.527932959038175,534943.9634363491,182792.92326461006,01/19/2020
Dundee Arms,339 Cambridge Heath Road,Bethnal Green,London,E09000030,Tower Hamlets,,E05009331,St. Peter's,,-0.05612251444311298,51.529039929079175,534936.9634382785,182915.9232311077,01/19/2020
Approach Tavern,47 Approach Road,Bethnal Green,Cambridge Heath,E09000030,Tower Hamlets,,E05009331,St. Peter's,,-0.05175969410990874,51.53126955386109,535232.9633580997,183171.9231616498,01/19/2020
Redchurch Brewery,275-276 poyser street,Bethnal Green,Cambridge Heath,E09000030,Tower Hamlets,,E05009325,Lansbury,,0.001316701581261573,51.5152415321635,538962.9623389917,181488.92361936008,01/19/2020
Little Driver,125 Bow Road,Bow,London,E09000030,Tower Hamlets,,E05009320,Bow West,,-0.023899439860606643,51.52771041242408,537175.9628261576,182827.92325508228,01/19/2020
Coborn,8 Coborn Road,Bow,London,E09000030,Tower Hamlets,,E05009320,Bow West,,-0.030205149418916392,51.52724984839551,536739.9629456908,182764.92327267933,01/19/2020
Lighthouse,421 Wick Lane,Bow,London,E09000030,Tower Hamlets,,E05009319,Bow East,,-0.02212763571720679,51.53632255833473,537272.9628009998,183788.92299513047,01/19/2020
Muller & Briggs,130 Cadogan Terrace,Hackney Wick,,E09000030,Tower Hamlets,,E05009319,Bow East,,-0.027376375306310725,51.53932448789312,536899.9629011783,184112.9229068145,01/19/2020
